Id,Ident,Type,Name,Latitude_deg,Longitude_deg,Elevation_ft,Continent,Country_name,Iso_country,Region_name,Iso_region,Local_region,Municipality,Scheduled_service,Gps_code,Iata_code,Local_code,Home_link,Wikipedia_link,Keywords,Score,Last_updated,TranslateName
3588,KHOU,medium_airport,William P Hobby Airport,29.645399,-95.2789,46,NA,United States,US,Texas,US-TX,TX,Houston,1,KHOU,HOU,HOU,http://www.fly2houston.com/hobbyHome,https://en.wikipedia.org/wiki/William_P._Hobby_Airport,QHO,750,2021-11-21T14:56:51+00:00,休斯顿机场
3894,KSNA,medium_airport,John Wayne Airport-Orange County Airport,33.675701,-117.867996,56,NA,United States,US,California,US-CA,CA,Santa Ana,1,KSNA,SNA,SNA,http://www.ocair.com/,https://en.wikipedia.org/wiki/John_Wayne_Airport,"Disney, Disneyland, Orange County",750,2021-08-01T10:11:28+00:00,圣塔安那橙郡县机场
3479,KDAL,medium_airport,Dallas Love Field,32.847099,-96.851799,487,NA,United States,US,Texas,US-TX,TX,Dallas,1,KDAL,DAL,DAL,http://www.dallas-lovefield.com/,https://en.wikipedia.org/wiki/Dallas_Love_Field,QDF,750,2021-11-21T14:57:51+00:00,
16091,KABQ,medium_airport,Albuquerque International Sunport,35.040199,-106.609001,5355,NA,United States,US,New Mexico,US-NM,NM,Albuquerque,1,KABQ,ABQ,ABQ,http://www.abqsunport.com/,https://en.wikipedia.org/wiki/Albuquerque_International_Sunport,,500,2021-11-21T14:58:42+00:00,阿尔伯克基机场
3932,KTUS,medium_airport,Tucson International Airport / Morris Air National Guard Base,32.115004,-110.938053,2643,NA,United States,US,Arizona,US-AZ,AZ,Tucson,1,KTUS,TUS,TUS,https://www.flytucson.com/,https://en.wikipedia.org/wiki/Tucson_International_Airport,"tucson, tucson international, morris angb",750,2021-11-21T14:59:59+00:00,图森机场
3396,KBDL,medium_airport,Bradley International Airport,41.93851,-72.688066,173,NA,United States,US,Connecticut,US-CT,CT,Hartford,1,KBDL,BDL,BDL,http://www.bradleyairport.com/,https://en.wikipedia.org/wiki/Bradley_International_Airport,"HFD, Hartford",750,2021-11-22T14:10:49+00:00,哈特福德机场
4345,LIML,medium_airport,Milano Linate Airport,45.445099,9.27674,353,EU,Italy,IT,Lombardy,IT-25,25,Milan,1,LIML,LIN,MI11,http://www.sea-aeroportimilano.it/en/,https://en.wikipedia.org/wiki/Linate_Airport,E Forlanini,750,2021-08-01T05:40:42+00:00,
3747,KOKC,medium_airport,Will Rogers World Airport,35.393101,-97.6007,1295,NA,United States,US,Oklahoma,US-OK,OK,Oklahoma City,1,KOKC,OKC,OKC,,https://en.wikipedia.org/wiki/Will_Rogers_World_Airport,,750,2021-11-21T14:55:53+00:00,俄克拉荷马城机场
3512,KELP,medium_airport,El Paso International Airport,31.80719948,-106.3779984,3959,NA,United States,US,Texas,US-TX,TX,El Paso,1,KELP,ELP,ELP,,https://en.wikipedia.org/wiki/El_Paso_International_Airport,,750,2010-01-23T11:27:50+00:00,埃尔帕索
5455,PHOG,medium_airport,Kahului Airport,20.898543,-156.431212,54,OC,United States,US,Hawaii,US-HI,HI,Kahului,1,PHOG,OGG,OGG,,https://en.wikipedia.org/wiki/Kahului_Airport,,750,2022-03-08T16:01:30+00:00,卡胡卢伊机场
1926,CYTZ,medium_airport,Billy Bishop Toronto City Centre Airport,43.627499,-79.396202,252,NA,Canada,CA,Ontario,CA-ON,ON,Toronto,1,CYTZ,YTZ,,http://www.torontoport.com/airport.aspx,https://en.wikipedia.org/wiki/Toronto_City_Centre_Airport,"YTO, Toronto Island Airport",750,2016-02-10T17:34:10+00:00,
3432,KBUR,medium_airport,Bob Hope Airport,34.197703,-118.356378,778,NA,United States,US,California,US-CA,CA,Burbank,1,KBUR,BUR,BUR,,,,750,2021-03-26T10:42:14+00:00,
3751,KOMA,medium_airport,Eppley Airfield,41.3032,-95.894096,984,NA,United States,US,Nebraska,US-NE,NE,Omaha,1,KOMA,OMA,OMA,,https://en.wikipedia.org/wiki/Eppley_Airfield,,750,2021-11-20T15:22:06+00:00,奥马哈
3755,KORF,medium_airport,Norfolk International Airport,36.8946,-76.201202,26,NA,United States,US,Virginia,US-VA,VA,Norfolk,1,KORF,ORF,ORF,,https://en.wikipedia.org/wiki/Norfolk_International_Airport,,750,2021-11-21T15:01:46+00:00,
3644,KLGB,medium_airport,Long Beach Airport (Daugherty Field),33.817699,-118.152,60,NA,United States,US,California,US-CA,CA,Long Beach,1,KLGB,LGB,LGB,http://www.lgb.org/,https://en.wikipedia.org/wiki/Long_Beach_Airport,Daugherty Field,750,2020-09-24T14:18:06+00:00,长滩机场
3450,KCHS,medium_airport,Charleston International Airport,32.898602,-80.040497,46,NA,United States,US,South Carolina,US-SC,SC,Charleston,1,KCHS,CHS,CHS,,https://en.wikipedia.org/wiki/Charleston_International_Airport,Charleston Air Force Base,750,2021-11-21T15:01:18+00:00,查尔斯顿AFB机场
4370,LIRA,medium_airport,Ciampino–G. B. Pastine International Airport,41.7994,12.5949,427,EU,Italy,IT,Lazio,IT-62,62,Rome,1,LIRA,CIA,RM12,,https://en.wikipedia.org/wiki/Ciampino%E2%80%93G._B._Pastine_International_Airport,"ROM, Giovan Battista Pastine Airport",750,2021-10-17T20:37:50+00:00,
3406,KBHM,medium_airport,Birmingham-Shuttlesworth International Airport,33.562901,-86.753502,650,NA,United States,US,Alabama,US-AL,AL,Birmingham,1,KBHM,BHM,BHM,http://www.flybirmingham.com/,https://en.wikipedia.org/wiki/Birmingham_International_Airport_(US),,750,2021-11-21T15:02:17+00:00,
2430,EGLC,medium_airport,London City Airport,51.505299,0.055278,19,EU,United Kingdom,GB,England,GB-ENG,ENG,London,1,EGLC,LCY,,http://www.londoncityairport.com/,https://en.wikipedia.org/wiki/London_City_Airport,LON,750,2016-03-15T12:52:27+00:00,
3421,KBOI,medium_airport,Boise Air Terminal/Gowen Field,43.5644,-116.223,2871,NA,United States,US,Idaho,US-ID,ID,Boise,1,KBOI,BOI,BOI,http://www.cityofboise.org/departments/airport/,https://en.wikipedia.org/wiki/Boise_Airport,"Boise Air Terminal, Gowen Field",750,2021-11-21T15:02:39+00:00,博伊西机场
3371,KALB,medium_airport,Albany International Airport,42.74829864501953,-73.80169677734375,285,NA,United States,US,New York,US-NY,NY,Albany,1,KALB,ALB,ALB,http://www.albanyairport.com/,https://en.wikipedia.org/wiki/Albany_International_Airport,,750,2008-06-13T14:30:04+00:00,
3589,KHPN,medium_airport,Westchester County Airport,41.06700134277344,-73.70760345458984,439,NA,United States,US,New York,US-NY,NY,White Plains,1,KHPN,HPN,HPN,,https://en.wikipedia.org/wiki/Westchester_County_Airport,"Manhattan, New York City, NYC",750,2008-06-13T14:30:04+00:00,维斯特切斯特郡机场
3757,KOSH,medium_airport,Wittman Regional Airport,43.98440170288086,-88.55699920654297,808,NA,United States,US,Wisconsin,US-WI,WI,Oshkosh,0,KOSH,OSH,OSH,http://www.wittmanairport.com/,https://en.wikipedia.org/wiki/Wittman_Regional_Airport,,375,2008-06-13T14:30:04+00:00,
5448,PHKO,medium_airport,Ellison Onizuka Kona International Airport at Keahole,19.738783,-156.045603,47,OC,United States,US,Hawaii,US-HI,HI,Kailua-Kona,1,PHKO,KOA,KOA,,https://en.wikipedia.org/wiki/Kona_International_Airport,,750,2022-03-08T16:02:00+00:00,科纳机场
4810,MROC,medium_airport,Juan Santamaría International Airport,9.99386,-84.208801,3021,NA,Costa Rica,CR,Alajuela,CR-A,A,San José (Alajuela),1,MROC,SJO,,,https://en.wikipedia.org/wiki/Juan_Santamar%C3%ADa_International_Airport,,750,2021-03-09T22:56:26+00:00,胡安 圣玛利亚机场
3552,KGEG,medium_airport,Spokane International Airport,47.6199,-117.533997,2376,NA,United States,US,Washington,US-WA,WA,Spokane,1,KGEG,GEG,GEG,,https://en.wikipedia.org/wiki/Spokane_International_Airport,,750,2021-11-21T15:03:15+00:00,斯波坎机场
3481,KDAY,medium_airport,James M Cox Dayton International Airport,39.902401,-84.219398,1009,NA,United States,US,Ohio,US-OH,OH,Dayton,1,KDAY,DAY,DAY,,https://en.wikipedia.org/wiki/Dayton_International_Airport,,750,2021-11-20T16:28:58+00:00,代顿
3566,KGRR,medium_airport,Gerald R. Ford International Airport,42.88079834,-85.52279663,794,NA,United States,US,Michigan,US-MI,MI,Grand Rapids,1,KGRR,GRR,GRR,,https://en.wikipedia.org/wiki/Gerald_R._Ford_International_Airport,,750,2010-01-23T11:27:52+00:00,
2157,EBCI,medium_airport,Brussels South Charleroi Airport,50.459202,4.45382,614,EU,Belgium,BE,Hainaut Province,BE-WHT,WHT,Brussels,1,EBCI,CRL,,http://www.charleroi-airport.com/doc.php?nd=o29&tid=29&lg=2&docid=1&site=1,https://en.wikipedia.org/wiki/Brussels_South_Charleroi_Airport,Gosselies Airport,750,2021-08-01T09:55:27+00:00,沙尔勒鲁瓦 南布鲁塞尔机场
3496,KDSM,medium_airport,Des Moines International Airport,41.534,-93.663101,958,NA,United States,US,Iowa,US-IA,IA,Des Moines,1,KDSM,DSM,DSM,,https://en.wikipedia.org/wiki/Des_Moines_International_Airport,,750,2021-08-08T06:02:23+00:00,得梅因机场
3645,KLIT,medium_airport,Bill & Hillary Clinton National Airport/Adams Field,34.729582,-92.223728,262,NA,United States,US,Arkansas,US-AR,AR,Little Rock,1,KLIT,LIT,LIT,,https://en.wikipedia.org/wiki/Little_Rock_National_Airport,,750,2021-11-20T16:32:41+00:00,小石城
3605,KICT,medium_airport,Wichita Eisenhower National Airport,37.649899,-97.433098,1333,NA,United States,US,Kansas,US-KS,KS,Wichita,1,KICT,ICT,ICT,,https://en.wikipedia.org/wiki/Wichita_Dwight_D._Eisenhower_National_Airport,,750,2021-07-31T17:52:14+00:00,
3707,KMSN,medium_airport,Dane County Regional Truax Field,43.1399,-89.337502,887,NA,United States,US,Wisconsin,US-WI,WI,Madison,1,KMSN,MSN,MSN,,https://en.wikipedia.org/wiki/Dane_County_Regional_Airport,,750,2022-03-04T14:34:33+00:00,麦迪逊机场
3463,KCOS,medium_airport,City of Colorado Springs Municipal Airport,38.805801,-104.700996,6187,NA,United States,US,Colorado,US-CO,CO,Colorado Springs,1,KCOS,COS,COS,https://flycos.coloradosprings.gov/,https://en.wikipedia.org/wiki/Colorado_Springs_Airport,,750,2021-11-22T14:14:00+00:00,
3855,KROC,medium_airport,Greater Rochester International Airport,43.1189,-77.672401,559,NA,United States,US,New York,US-NY,NY,Rochester,1,KROC,ROC,ROC,,https://en.wikipedia.org/wiki/Greater_Rochester_International_Airport,,750,2022-03-04T14:05:26+00:00,
3984,LDDU,medium_airport,Dubrovnik Airport,42.5614013671875,18.268199920654297,527,EU,Croatia,HR,Dubrovnik-Neretva County,HR-19,19,Dubrovnik,1,LDDU,DBV,,,https://en.wikipedia.org/wiki/Dubrovnik_Airport,,750,2008-12-19T20:08:33+00:00,杜布罗夫尼克
3684,KMHT,medium_airport,Manchester-Boston Regional Airport,42.932598,-71.435699,266,NA,United States,US,New Hampshire,US-NH,NH,Manchester,1,KMHT,MHT,MHT,,https://en.wikipedia.org/wiki/Manchester-Boston_Regional_Airport,,599,2021-08-01T05:28:18+00:00,
3792,KPSP,medium_airport,Palm Springs International Airport,33.8297,-116.507004,477,NA,United States,US,California,US-CA,CA,Palm Springs,1,KPSP,PSP,PSP,http://www.palmspringsca.gov/index.aspx?page=270,https://en.wikipedia.org/wiki/Palm_Springs_International_Airport,Palm Springs Air Base,750,2021-04-19T16:07:50+00:00,
26904,YBCS,medium_airport,Cairns International Airport,-16.885799408,145.755004883,10,OC,Australia,AU,Queensland,AU-QLD,QLD,Cairns,1,YBCS,CNS,,,https://en.wikipedia.org/wiki/Cairns_International_Airport,,750,2010-08-29T23:17:14+00:00,凯恩斯机场
3115,GMMX,medium_airport,Menara Airport,31.606899261499997,-8.03629970551,1545,AF,Morocco,MA,Marrakech Province,MA-MAR,MAR,Marrakech,1,GMMX,RAK,,,https://en.wikipedia.org/wiki/Menara_International_Airport,"Marakesh, Marrakesh",750,2010-08-30T13:16:22+00:00,马拉喀什
3866,KSBA,medium_airport,Santa Barbara Municipal Airport,34.42620087,-119.8399963,13,NA,United States,US,California,US-CA,CA,Santa Barbara,1,KSBA,SBA,SBA,,https://en.wikipedia.org/wiki/Santa_Barbara_Airport,,750,2010-01-23T11:28:05+00:00,圣芭芭拉机场
2227,EDFH,medium_airport,Frankfurt-Hahn Airport,49.9487,7.26389,1649,EU,Germany,DE,Rhineland-Palatinate,DE-RP,RP,Frankfurt am Main,1,EDFH,HHN,,,https://en.wikipedia.org/wiki/Frankfurt-Hahn_Airport,,750,2017-06-08T15:58:25+00:00,
1979,CYYJ,medium_airport,Victoria International Airport,48.6469,-123.426003,63,NA,Canada,CA,British Columbia,CA-BC,BC,Victoria,1,CYYJ,YYJ,,http://www.victoriaairport.com/,https://en.wikipedia.org/wiki/Victoria_International_Airport,,750,2021-11-20T16:09:59+00:00,维多利亚机场
3938,KTYS,medium_airport,McGhee Tyson Airport,35.811001,-83.994003,981,NA,United States,US,Tennessee,US-TN,TN,Knoxville,1,KTYS,TYS,TYS,,https://en.wikipedia.org/wiki/McGhee_Tyson_Airport,,750,2021-11-20T16:26:47+00:00,诺克斯维尔
1968,CYXU,medium_airport,London Airport,43.035599,-81.1539,912,NA,Canada,CA,Ontario,CA-ON,ON,London,1,CYXU,YXU,,http://www.londonairport.on.ca/,https://en.wikipedia.org/wiki/London_International_Airport,,750,2016-02-09T10:45:25+00:00,加拿大伦敦机场
3783,KPNS,medium_airport,Pensacola International Airport,30.4734,-87.1866,121,NA,United States,US,Florida,US-FL,FL,Pensacola,1,KPNS,PNS,PNS,http://www.flypensacola.com/,https://en.wikipedia.org/wiki/Pensacola_Regional_Airport,,750,2019-11-07T18:53:05+00:00,
3430,KBTV,medium_airport,Burlington International Airport,44.471901,-73.153297,335,NA,United States,US,Vermont,US-VT,VT,South Burlington,1,KBTV,BTV,BTV,http://www.vermontairports.com/btv.html,https://en.wikipedia.org/wiki/Burlington_International_Airport,,750,2022-03-08T12:29:11+00:00,柏林顿机场
3924,KTLH,medium_airport,Tallahassee Regional Airport,30.3965,-84.350304,81,NA,United States,US,Florida,US-FL,FL,Tallahassee,1,KTLH,TLH,TLH,,https://en.wikipedia.org/wiki/Tallahassee_Regional_Airport,,750,2021-11-20T15:24:50+00:00,塔拉哈西机场
3522,KEYW,medium_airport,Key West International Airport,24.556101,-81.759598,3,NA,United States,US,Florida,US-FL,FL,Key West,1,KEYW,EYW,EYW,,https://en.wikipedia.org/wiki/Key_West_International_Airport,,750,2021-07-31T17:28:00+00:00,基韦斯特
4433,LOWS,medium_airport,Salzburg Airport,47.793300628699996,13.0043001175,1411,EU,Austria,AT,Salzburg,AT-5,5,Salzburg,1,LOWS,SZG,,http://www.salzburg-airport.com/,https://en.wikipedia.org/wiki/Salzburg_Airport,,750,2014-03-22T03:54:58+00:00,萨尔茨堡机场
4042,LEVC,medium_airport,Valencia Airport,39.4893,-0.481625,240,EU,Spain,ES,Valencia,ES-V,V,Valencia,1,LEVC,VLC,,https://www.aena.es/en/valencia.html,https://en.wikipedia.org/wiki/Valencia_Airport,,750,2021-10-07T11:35:53+00:00,巴伦西亚
4010,LEGE,medium_airport,Girona-Costa Brava Airport,41.901001,2.76055,468,EU,Spain,ES,Girona,ES-GE,GE,Girona,1,LEGE,GRO,,https://www.aena.es/en/girona-costa-brava.html,https://en.wikipedia.org/wiki/Girona-Costa_Brava_Airport,"Girona,Costa Brava,Girona-Costa Brava",750,2021-10-07T10:58:43+00:00,
3401,KBFI,medium_airport,Boeing Field King County International Airport,47.529999,-122.302002,21,NA,United States,US,Washington,US-WA,WA,Seattle,1,KBFI,BFI,BFI,,https://en.wikipedia.org/wiki/Boeing_Field,,750,2021-08-01T10:13:21+00:00,
3991,LDSP,medium_airport,Split Airport,43.53889846801758,16.29800033569336,79,EU,Croatia,HR,Split-Dalmatia County,HR-17,17,Split,1,LDSP,SPU,,,https://en.wikipedia.org/wiki/Split_Airport,,750,2008-12-19T20:08:57+00:00,斯普利特机场机场
3568,KGSO,medium_airport,Piedmont Triad International Airport,36.097801,-79.937302,925,NA,United States,US,North Carolina,US-NC,NC,Greensboro,1,KGSO,GSO,GSO,,https://en.wikipedia.org/wiki/Piedmont_Triad_International_Airport,,750,2021-11-20T16:25:34+00:00,格林斯伯勒
3640,KLEX,medium_airport,Blue Grass Airport,38.036499,-84.605904,979,NA,United States,US,Kentucky,US-KY,KY,Lexington,1,KLEX,LEX,LEX,http://www.bluegrassairport.com/,https://en.wikipedia.org/wiki/Blue_Grass_Airport,,750,2021-11-20T15:25:26+00:00,列克星敦机场
4681,MKJS,medium_airport,Sangster International Airport,18.503700256347656,-77.91339874267578,4,NA,Jamaica,JM,Saint James,JM-08,08,Montego Bay,1,MKJS,MBJ,,,https://en.wikipedia.org/wiki/Sangster_International_Airport,,750,2008-06-13T14:30:04+00:00,SANGSTER机场
3705,KMRY,medium_airport,Monterey Peninsula Airport,36.58700180053711,-121.84300231933594,257,NA,United States,US,California,US-CA,CA,Monterey,1,KMRY,MRY,MRY,,https://en.wikipedia.org/wiki/Monterey_Peninsula_Airport,,750,2008-06-13T14:30:04+00:00,
4049,LEZL,medium_airport,Sevilla Airport,37.417999,-5.89311,112,EU,Spain,ES,Andalucía,ES-AN,AN,Sevilla,1,LEZL,SVQ,,https://www.aena.es/en/seville.html,https://en.wikipedia.org/wiki/San_Pablo_Airport,,750,2021-10-07T11:33:15+00:00,塞维利亚
3569,KGSP,medium_airport,Greenville Spartanburg International Airport,34.895699,-82.218903,964,NA,United States,US,South Carolina,US-SC,SC,Greer,1,KGSP,GSP,GSP,,https://en.wikipedia.org/wiki/Greenville-Spartanburg_International_Airport,,750,2021-11-20T16:24:51+00:00,
2418,EGGP,medium_airport,Liverpool John Lennon Airport,53.333599,-2.84972,80,EU,United Kingdom,GB,England,GB-ENG,ENG,Liverpool,1,EGGP,LPL,,http://www.liverpoolairport.com/,https://en.wikipedia.org/wiki/Liverpool_John_Lennon_Airport,,750,2021-11-21T15:05:19+00:00,利物浦约翰列侬机场
3633,KLBB,medium_airport,Lubbock Preston Smith International Airport,33.663601,-101.822998,3282,NA,United States,US,Texas,US-TX,TX,Lubbock,1,KLBB,LBB,LBB,http://www.flylia.com/,https://en.wikipedia.org/wiki/Lubbock_Preston_Smith_International_Airport,,750,2021-11-20T15:26:01+00:00,拉伯克
3920,KTEB,medium_airport,Teterboro Airport,40.85010147089999,-74.060798645,9,NA,United States,US,New Jersey,US-NJ,NJ,Teterboro,0,KTEB,TEB,TEB,http://www.teb.com/,https://en.wikipedia.org/wiki/Teterboro_Airport,"Manhattan, New York City, NYC",600,2013-08-24T22:30:38+00:00,
3478,KDAB,medium_airport,Daytona Beach International Airport,29.179899,-81.058098,34,NA,United States,US,Florida,US-FL,FL,Daytona Beach,1,KDAB,DAB,DAB,,https://en.wikipedia.org/wiki/Daytona_Beach_International_Airport,,750,2021-08-01T05:30:32+00:00,代托纳比奇
21321,KVGT,medium_airport,North Las Vegas Metropolitan International Airport,36.210701,-115.194,2205,NA,United States,US,Nevada,US-NV,NV,Las Vegas,0,KVGT,VGT,VGT,http://www.vgt.aero/index.html,https://en.wikipedia.org/wiki/North_Las_Vegas_Airport,"Northtown Airport, Las Vegas North Air Terminal",250,2021-11-21T15:04:52+00:00,
1763,CYHM,medium_airport,John C. Munro Hamilton International Airport,43.173599243199995,-79.93499755859999,780,NA,Canada,CA,Ontario,CA-ON,ON,Hamilton,1,CYHM,YHM,,http://www.flyhi.ca/,https://en.wikipedia.org/wiki/Hamilton/John_C._Munro_International_Airport,Mount Hope Airport,750,2010-09-15T17:25:50+00:00,约翰·卡尔·芒罗哈密尔顿机场
3838,KRAP,medium_airport,Rapid City Regional Airport,44.0452995300293,-103.05699920654297,3204,NA,United States,US,South Dakota,US-SD,SD,Rapid City,1,KRAP,RAP,RAP,,https://en.wikipedia.org/wiki/Rapid_City_Regional_Airport,,750,2008-06-13T14:30:04+00:00,拉皮德城
3439,KCAK,medium_airport,Akron Canton Regional Airport,40.916099548339844,-81.44219970703125,1228,NA,United States,US,Ohio,US-OH,OH,Akron,1,KCAK,CAK,CAK,,https://en.wikipedia.org/wiki/Akron-Canton_Regional_Airport,,750,2008-06-13T14:30:04+00:00,阿克伦坎顿机场
5449,PHLI,medium_airport,Lihue Airport,21.976,-159.339005,153,OC,United States,US,Hawaii,US-HI,HI,Lihue,1,PHLI,LIH,LIH,,https://en.wikipedia.org/wiki/Lihu'e_Airport,,750,2022-03-08T16:02:06+00:00,考爱岛机场
3899,KSRQ,medium_airport,Sarasota Bradenton International Airport,27.395399,-82.554398,30,NA,United States,US,Florida,US-FL,FL,Sarasota/Bradenton,1,KSRQ,SRQ,SRQ,,https://en.wikipedia.org/wiki/Sarasota-Bradenton_International_Airport,,750,2021-11-20T15:26:55+00:00,
3448,KCHA,medium_airport,Chattanooga Metropolitan Airport (Lovell Field),35.035301,-85.203796,683,NA,United States,US,Tennessee,US-TN,TN,Chattanooga,1,KCHA,CHA,CHA,,https://en.wikipedia.org/wiki/Chattanooga_Metropolitan_Airport,,750,2021-11-20T15:27:32+00:00,Lovell Field机场
1743,CYGK,medium_airport,Kingston Norman Rogers Airport,44.22529983520508,-76.5969009399414,305,NA,Canada,CA,Ontario,CA-ON,ON,Kingston,1,CYGK,YGK,,http://www.cityofkingston.ca/residents/transportation/airport/index.asp,https://en.wikipedia.org/wiki/Kingston/Norman_Rogers_Airport,,750,2009-06-27T21:58:34+00:00,金斯敦
3405,KBGR,medium_airport,Bangor International Airport,44.8074,-68.828102,192,NA,United States,US,Maine,US-ME,ME,Bangor,1,KBGR,BGR,BGR,,https://en.wikipedia.org/wiki/Bangor_International_Airport,,750,2021-11-21T15:05:48+00:00,班戈机场
2417,EGGD,medium_airport,Bristol Airport,51.382702,-2.71909,622,EU,United Kingdom,GB,England,GB-ENG,ENG,Bristol,1,EGGD,BRS,,http://www.bristolairport.co.uk/,https://en.wikipedia.org/wiki/Bristol_International_Airport,Lulsgate Bottom,750,2021-11-20T15:27:49+00:00,布里斯托尔机场
3524,KFAT,medium_airport,Fresno Yosemite International Airport,36.776199,-119.718002,336,NA,United States,US,California,US-CA,CA,Fresno,1,KFAT,FAT,FAT,https://flyfresno.com/,https://en.wikipedia.org/wiki/Fresno_Yosemite_International_Airport,,750,2021-08-01T10:15:05+00:00,弗雷斯诺
3775,KPIE,medium_airport,St Petersburg Clearwater International Airport,27.91020012,-82.68740082,11,NA,United States,US,Florida,US-FL,FL,St Petersburg-Clearwater,1,KPIE,PIE,PIE,,https://en.wikipedia.org/wiki/St._Petersburg-Clearwater_International_Airport,,750,2010-01-23T11:28:03+00:00,
3672,KMDT,medium_airport,Harrisburg International Airport,40.1935005188,-76.7633972168,310,NA,United States,US,Pennsylvania,US-PA,PA,Harrisburg,1,KMDT,MDT,MDT,http://www.flyhia.com/,https://en.wikipedia.org/wiki/Harrisburg_International_Airport,"Harrisburg,Lancaster,York,HIA,Middletown",750,2011-06-18T08:04:15+00:00,哈里斯堡机场
2448,EGNT,medium_airport,Newcastle Airport,55.037498,-1.69167,266,EU,United Kingdom,GB,England,GB-ENG,ENG,Newcastle,1,EGNT,NCL,,http://www.newcastleairport.com/,https://en.wikipedia.org/wiki/Newcastle_Airport,,750,2021-11-20T16:35:04+00:00,纽卡斯尔机场
3387,KAVL,medium_airport,Asheville Regional Airport,35.436199,-82.541801,2165,NA,United States,US,North Carolina,US-NC,NC,Asheville,1,KAVL,AVL,AVL,,https://en.wikipedia.org/wiki/Asheville_Regional_Airport,,750,2021-08-01T09:49:00+00:00,阿什维尔机场
3438,KCAE,medium_airport,Columbia Metropolitan Airport,33.938801,-81.119499,236,NA,United States,US,South Carolina,US-SC,SC,Columbia,1,KCAE,CAE,CAE,,https://en.wikipedia.org/wiki/Columbia_Metropolitan_Airport,,750,2021-11-20T16:26:07+00:00,哥伦比亚梅特勒波利滕机场
1875,CYQR,medium_airport,Regina International Airport,50.43190002441406,-104.66600036621094,1894,NA,Canada,CA,Saskatchewan,CA-SK,SK,Regina,1,CYQR,YQR,,,https://en.wikipedia.org/wiki/Regina_International_Airport,"YQR, Roland J. Groome International",750,2008-06-13T14:30:04+00:00,里贾纳
1957,CYXE,medium_airport,Saskatoon John G. Diefenbaker International Airport,52.170799255371094,-106.69999694824219,1653,NA,Canada,CA,Saskatchewan,CA-SK,SK,Saskatoon,1,CYXE,YXE,,,https://en.wikipedia.org/wiki/Saskatoon/John_G._Diefenbaker_International_Airport,,750,2008-11-01T16:40:08+00:00,萨斯卡通约翰·乔治·迪芬贝克机场
3767,KPDK,medium_airport,DeKalb Peachtree Airport,33.8755989075,-84.3020019531,1003,NA,United States,US,Georgia,US-GA,GA,Atlanta,0,KPDK,PDK,PDK,http://web.co.dekalb.ga.us/pdkairport/index.asp,https://en.wikipedia.org/wiki/DeKalb-Peachtree_Airport,,400,2012-01-07T04:16:52+00:00,
21033,KSAF,medium_airport,Santa Fe Municipal Airport,35.617099762,-106.088996887,6348,NA,United States,US,New Mexico,US-NM,NM,Santa Fe,0,KSAF,SAF,SAF,,,,250,2013-01-12T17:23:20+00:00,
21087,KSMO,medium_airport,Santa Monica Municipal Airport,34.0158,-118.450996,170,NA,United States,US,California,US-CA,CA,Santa Monica,0,KSMO,SMO,SMO,http://www.smgov.net/departments/airport/,https://en.wikipedia.org/wiki/Santa_Monica_Airport,Clover Field,250,2021-11-21T15:06:26+00:00,
3449,KCHO,medium_airport,Charlottesville Albemarle Airport,38.13859939575195,-78.4529037475586,639,NA,United States,US,Virginia,US-VA,VA,Charlottesville,1,KCHO,CHO,CHO,,https://en.wikipedia.org/wiki/Charlottesville-Albemarle_Airport,,750,2008-06-13T14:30:04+00:00,
2660,ESKN,medium_airport,Stockholm Skavsta Airport,58.788601,16.912201,140,EU,Sweden,SE,Södermanlands län,SE-D,D,Stockholm,1,ESKN,NYO,,,https://en.wikipedia.org/wiki/Stockholm-Skavsta_Airport,,750,2021-04-10T16:46:39+00:00,
3723,KNEW,medium_airport,Lakefront Airport,30.042400360107,-90.028297424316,8,NA,United States,US,Louisiana,US-LA,LA,New Orleans,0,KNEW,NEW,NEW,http://www.lakefrontairport.com/,https://en.wikipedia.org/wiki/New_Orleans_Lakefront_Airport,,300,2015-12-11T23:56:16+00:00,
21333,KVNY,medium_airport,Van Nuys Airport,34.209800720215,-118.48999786377,802,NA,United States,US,California,US-CA,CA,Van Nuys,0,KVNY,VNY,VNY,,https://en.wikipedia.org/wiki/Van_Nuys_Airport,,250,2015-10-12T17:28:09+00:00,
3377,KAMA,medium_airport,Rick Husband Amarillo International Airport,35.219398,-101.706001,3607,NA,United States,US,Texas,US-TX,TX,Amarillo,1,KAMA,AMA,AMA,http://airport.amarillo.gov/,https://en.wikipedia.org/wiki/Rick_Husband_Amarillo_International_Airport,,750,2021-11-20T15:28:26+00:00,阿马里洛机场
3618,KJAC,medium_airport,Jackson Hole Airport,43.6072998046875,-110.73799896240234,6451,NA,United States,US,Wyoming,US-WY,WY,Jackson,1,KJAC,JAC,JAC,,https://en.wikipedia.org/wiki/Jackson_Hole_Airport,,750,2008-06-13T14:30:04+00:00,杰克逊维尔机场
1787,CYKF,medium_airport,Waterloo Airport,43.460800170899994,-80.3786010742,1055,NA,Canada,CA,Ontario,CA-ON,ON,Kitchener,1,CYKF,YKF,,http://www.waterlooairport.ca/,https://en.wikipedia.org/wiki/Region_of_Waterloo_International_Airport,"Kitchener, Cambridge, YFK",750,2010-12-28T12:12:39+00:00,基奇纳机场
5974,SBSP,medium_airport,Congonhas Airport,-23.62611,-46.656387,2631,SA,Brazil,BR,São Paulo,BR-SP,SP,São Paulo,1,SBSP,CGH,,http://www.infraero.gov.br/usa/aero_prev_home.php?ai=219,https://en.wikipedia.org/wiki/Congonhas-S%C3%A3o_Paulo_International_Airport,http://www.infraero.gov.br/usa/aero_prev_home.php?ai=219,750,2021-11-21T15:07:39+00:00,
4169,LFOB,medium_airport,Paris Beauvais Tillé Airport,49.454399,2.11278,359,EU,France,FR,Hauts-de-France,FR-HDF,HDF,Beauvais,1,LFOB,BVA,,https://www.aeroportparisbeauvais.com/,https://en.wikipedia.org/wiki/Paris_Beauvais_Till%C3%A9_Airport,,750,2021-07-18T13:59:47+00:00,博韦蒂耶机场
3562,KGRB,medium_airport,Austin Straubel International Airport,44.483459,-88.130805,695,NA,United States,US,Wisconsin,US-WI,WI,Green Bay,1,KGRB,GRB,GRB,,https://en.wikipedia.org/wiki/Austin_Straubel_International_Airport,,750,2022-03-17T23:13:18+00:00,格林贝
3594,KHSV,medium_airport,Huntsville International Carl T Jones Field,34.637199,-86.775101,629,NA,United States,US,Alabama,US-AL,AL,Huntsville,1,KHSV,HSV,HSV,http://www.flyhuntsville.com/portal/#.VbaG-_lVhBc,https://en.wikipedia.org/wiki/Huntsville_International_Airport,,750,2021-11-21T15:08:07+00:00,亨茨维尔机场
1808,CYLW,medium_airport,Kelowna International Airport,49.9561,-119.377998,1421,NA,Canada,CA,British Columbia,CA-BC,BC,Kelowna,1,CYLW,YLW,,http://www.kelowna.ca/CM/Page68.aspx,https://en.wikipedia.org/wiki/Kelowna_International_Airport,"Kelowna, Okanagan",750,2022-01-09T11:16:48+00:00,基劳纳机场
2600,ENTO,medium_airport,"Sandefjord Airport, Torp",59.1866989136,10.258600235,286,EU,Norway,NO,Vestfold og Telemark,NO-38,38,Torp,1,ENTO,TRF,,,https://en.wikipedia.org/wiki/Sandefjord_Airport%2C_Torp,,750,2010-06-13T08:08:28+00:00,
2524,EHRD,medium_airport,Rotterdam The Hague Airport,51.956902,4.43722,-15,EU,Netherlands,NL,Zuid-Holland,NL-ZH,ZH,Rotterdam,1,EHRD,RTM,,https://www.rotterdamthehagueairport.nl/,https://en.wikipedia.org/wiki/Rotterdam_Airport,Vliegveld Zestienhoven,750,2022-02-08T10:26:36+00:00,鹿特丹机场
19912,KFXE,medium_airport,Fort Lauderdale Executive Airport,26.1972999573,-80.1707000732,13,NA,United States,US,Florida,US-FL,FL,Fort Lauderdale,0,KFXE,FXE,FXE,http://www.fortlauderdale.gov/fxE/index.htm,https://en.wikipedia.org/wiki/Fort_Lauderdale_Executive_Airport,West Prospect Satellite Field,250,2014-09-18T03:44:36+00:00,
5308,OTBD,medium_airport,Doha International Airport,25.261101,51.565102,35,AS,Qatar,QA,Ad-Dawhah Municipality,QA-DA,DA,Doha,0,OTBD,DIA,,http://www.dohaairport.com/,https://en.wikipedia.org/wiki/Doha_International_Airport,مطار الدوحة الدولى,750,2019-02-09T09:18:20+00:00,
1820,CYMX,medium_airport,Montreal International (Mirabel) Airport,45.679501,-74.038696,270,NA,Canada,CA,Quebec,CA-QC,QC,Montréal,0,CYMX,YMX,,,https://en.wikipedia.org/wiki/Montr%C3%A9al-Mirabel_International_Airport,YMQ,750,2018-01-29T16:48:16+00:00,
3879,KSGF,medium_airport,Springfield Branson National Airport,37.245701,-93.388603,1268,NA,United States,US,Missouri,US-MO,MO,Springfield,1,KSGF,SGF,SGF,,https://en.wikipedia.org/wiki/Springfield/Branson_National_Airport,,750,2021-11-20T16:31:46+00:00,斯普林菲尔德机场
19291,KAPA,medium_airport,Centennial Airport,39.57009888,-104.848999,5885,NA,United States,US,Colorado,US-CO,CO,Denver,0,KAPA,APA,APA,,https://en.wikipedia.org/wiki/Centennial_Airport,Arapahoe County Airport,250,2012-06-17T18:23:33+00:00,
3717,KMYR,medium_airport,Myrtle Beach International Airport,33.6796989441,-78.9282989502,25,NA,United States,US,South Carolina,US-SC,SC,Myrtle Beach,1,KMYR,MYR,MYR,,https://en.wikipedia.org/wiki/Myrtle_Beach_International_Airport,,750,2014-06-03T10:17:32+00:00,默特尔比奇机场
20187,KISM,medium_airport,Kissimmee Gateway Airport,28.2898006439,-81.4371032715,82,NA,United States,US,Florida,US-FL,FL,Orlando,0,KISM,ISM,ISM,http://www.kissimmee.org/index.aspx?page=111,https://en.wikipedia.org/wiki/Kissimmee_Gateway_Airport,,250,2014-05-29T20:25:24+00:00,
3416,KBLI,medium_airport,Bellingham International Airport,48.79280090332031,-122.53800201416016,170,NA,United States,US,Washington,US-WA,WA,Bellingham,1,KBLI,BLI,BLI,,https://en.wikipedia.org/wiki/Bellingham_International_Airport,,750,2008-06-13T14:30:04+00:00,贝灵汉机场
3559,KGNV,medium_airport,Gainesville Regional Airport,29.6900997162,-82.2717971802,152,NA,United States,US,Florida,US-FL,FL,Gainesville,1,KGNV,GNV,GNV,,https://en.wikipedia.org/wiki/Gainesville_Regional_Airport,,750,2013-05-15T09:57:56+00:00,
5457,PHTO,medium_airport,Hilo International Airport,19.721399,-155.048004,38,OC,United States,US,Hawaii,US-HI,HI,Hilo,1,PHTO,ITO,ITO,,https://en.wikipedia.org/wiki/Hilo_International_Airport,,750,2022-03-08T16:02:24+00:00,
3868,KSBN,medium_airport,South Bend Regional Airport,41.708698,-86.317299,799,NA,United States,US,Indiana,US-IN,IN,South Bend,1,KSBN,SBN,SBN,,https://en.wikipedia.org/wiki/South_Bend_Regional_Airport,,750,2021-08-01T05:32:31+00:00,南本德
1795,CYKZ,medium_airport,Buttonville Municipal Airport,43.86220169067383,-79.37000274658203,650,NA,Canada,CA,Ontario,CA-ON,ON,Toronto,0,CYKZ,YKZ,,http://www.torontoairways.com/,https://en.wikipedia.org/wiki/Toronto/Buttonville_Municipal_Airport,YTO,275,2009-08-05T21:23:51+00:00,巴顿维尔机场
2464,EGPK,medium_airport,Glasgow Prestwick Airport,55.502003,-4.587019,65,EU,United Kingdom,GB,Scotland,GB-SCT,SCT,"Prestwick, South Ayrshire",1,EGPK,PIK,,http://www.glasgowprestwick.com/,https://en.wikipedia.org/wiki/Glasgow_Prestwick_International_Airport,,750,2021-11-02T17:37:16+00:00,
3869,KSBP,medium_airport,San Luis County Regional Airport,35.236801147499996,-120.641998291,212,NA,United States,US,California,US-CA,CA,San Luis Obispo,1,KSBP,SBP,SBP,http://www.sloairport.com/,https://en.wikipedia.org/wiki/San_Luis_Obispo_County_Regional_Airport,SLO Airport,750,2014-06-11T07:23:42+00:00,
3408,KBIL,medium_airport,Billings Logan International Airport,45.807701,-108.542999,3652,NA,United States,US,Montana,US-MT,MT,Billings,1,KBIL,BIL,BIL,,https://en.wikipedia.org/wiki/Billings_Logan_International_Airport,,750,2021-11-20T15:29:45+00:00,比灵斯
3616,KISP,medium_airport,Long Island Mac Arthur Airport,40.79520035,-73.10019684,99,NA,United States,US,New York,US-NY,NY,Islip,1,KISP,ISP,ISP,,https://en.wikipedia.org/wiki/Long_Island_MacArthur_Airport,,750,2010-01-23T11:27:54+00:00,
1863,CYQA,medium_airport,Muskoka Airport,44.974700927734375,-79.30329895019531,925,NA,Canada,CA,Ontario,CA-ON,ON,Muskoka,0,CYQA,YQA,,,https://en.wikipedia.org/wiki/Muskoka_Airport,,275,2008-06-13T14:30:04+00:00,
3451,KCID,medium_airport,The Eastern Iowa Airport,41.884701,-91.7108,869,NA,United States,US,Iowa,US-IA,IA,Cedar Rapids,1,KCID,CID,CID,,https://en.wikipedia.org/wiki/The_Eastern_Iowa_Airport,Cedar Rapids Municipal,750,2021-11-20T15:30:19+00:00,锡达拉皮兹机场
4266,LGKR,medium_airport,Ioannis Kapodistrias International Airport,39.601898193359375,19.911699295043945,6,EU,Greece,GR,Corfu,GR-22,22,Kerkyra Island,1,LGKR,CFU,,,https://en.wikipedia.org/wiki/Corfu_International_Airport%2C_%26quot%3BIoannis_Kapodistrias%26quot%3B,Corfu,750,2008-11-03T17:02:04+00:00,
4959,NFFN,medium_airport,Nadi International Airport,-17.755399703979492,177.4429931640625,59,OC,Fiji,FJ,Western,FJ-W,W,Nadi,1,NFFN,NAN,,,https://en.wikipedia.org/wiki/Nadi_International_Airport,,750,2008-12-19T20:09:58+00:00,
2450,EGNX,medium_airport,East Midlands Airport,52.8311,-1.32806,306,EU,United Kingdom,GB,England,GB-ENG,ENG,Nottingham,1,EGNX,EMA,,http://www.eastmidlandsairport.com/,https://en.wikipedia.org/wiki/East_Midlands_Airport,RAF Castle Donington,750,2021-11-20T15:31:04+00:00,
4355,LIPH,medium_airport,Treviso-Sant'Angelo Airport,45.648399,12.1944,59,EU,Italy,IT,Veneto,IT-34,34,Treviso,1,LIPH,TSF,TV01,http://www.trevisoairport.it/tsf/index.jsp?_requestid=677517&language=en,https://en.wikipedia.org/wiki/Treviso_Airport,"Venice, Antonio Canova Terminal, Treviso Airport",750,2021-08-01T09:56:11+00:00,
4380,LIRQ,medium_airport,Peretola Airport,43.810001,11.2051,142,EU,Italy,IT,Tuscany,IT-52,52,Firenze,1,LIRQ,FLR,FI04,http://www.aeroporto.firenze.it/,"https://en.wikipedia.org/wiki/Florence_Airport,_Peretola","Florence, Firenze, Amerigo Vespucci Airport",750,2016-07-03T13:45:41+00:00,佛罗伦萨机场
2444,EGNM,medium_airport,Leeds Bradford Airport,53.865898,-1.66057,681,EU,United Kingdom,GB,England,GB-ENG,ENG,Leeds,1,EGNM,LBA,,http://www.lbia.co.uk/,https://en.wikipedia.org/wiki/Leeds_Bradford_International_Airport,,750,2021-11-20T15:30:48+00:00,利兹机场
3911,KSWF,medium_airport,New York Stewart International Airport,41.504101,-74.104797,491,NA,United States,US,New York,US-NY,NY,Newburgh,1,KSWF,SWF,SWF,,https://en.wikipedia.org/wiki/Stewart_International_Airport,,750,2019-07-14T17:43:57+00:00,
1877,CYQT,medium_airport,Thunder Bay Airport,48.37189865112305,-89.32389831542969,653,NA,Canada,CA,Ontario,CA-ON,ON,Thunder Bay,1,CYQT,YQT,,,https://en.wikipedia.org/wiki/Thunder_Bay_International_Airport,,750,2008-06-13T14:30:04+00:00,桑德贝
3517,KEUG,medium_airport,Mahlon Sweet Field,44.12459945678711,-123.21199798583984,374,NA,United States,US,Oregon,US-OR,OR,Eugene,1,KEUG,EUG,EUG,,https://en.wikipedia.org/wiki/Eugene_Airport,,750,2008-06-13T14:30:04+00:00,尤金
3547,KFWA,medium_airport,Fort Wayne International Airport,40.9785,-85.195099,814,NA,United States,US,Indiana,US-IN,IN,Fort Wayne,1,KFWA,FWA,FWA,https://fwairport.com/,https://en.wikipedia.org/wiki/Fort_Wayne_International_Airport,Baer Field,750,2021-11-20T15:31:59+00:00,韦恩堡巴尔机场
2426,EGJJ,medium_airport,Jersey Airport,49.20790100097656,-2.195509910583496,277,EU,Jersey,JE,(unassigned),JE-U-A,U-A,Saint Helier,1,EGJJ,JER,,http://www.jerseyairport.com/,https://en.wikipedia.org/wiki/Jersey_Airport,Channel Islands,750,2009-08-09T11:39:24+00:00,泽西机场
3628,KLAL,medium_airport,Lakeland Linder International Airport,27.988899,-82.018602,142,NA,United States,US,Florida,US-FL,FL,Lakeland,0,KLAL,LAL,LAL,,https://en.wikipedia.org/wiki/Lakeland_Linder_Regional_Airport,,300,2019-03-01T19:23:02+00:00,
4431,LOWI,medium_airport,Innsbruck Airport,47.260201,11.344,1907,EU,Austria,AT,Tyrol,AT-7,7,Innsbruck,1,LOWI,INN,,http://www.innsbruck-airport.com/,https://en.wikipedia.org/wiki/Innsbruck_Airport,Kranebitten Airport,750,2021-02-22T15:59:07+00:00,茵斯布鲁克机场
2702,ESSB,medium_airport,Stockholm-Bromma Airport,59.354400634765625,17.941699981689453,47,EU,Sweden,SE,Stockholms län,SE-AB,AB,Stockholm,1,ESSB,BMA,,,https://en.wikipedia.org/wiki/Stockholm-Bromma_Airport,,750,2008-07-13T14:22:15+00:00,
21114,KSTS,medium_airport,Charles M. Schulz Sonoma County Airport,38.50899887,-122.8130035,128,NA,United States,US,California,US-CA,CA,Santa Rosa,1,KSTS,STS,STS,http://www.sonomacountyairport.org/,https://en.wikipedia.org/wiki/Charles_M._Schulz_-_Sonoma_County_Airport,,500,2014-04-11T19:00:49+00:00,
2459,EGPD,medium_airport,Aberdeen Dyce Airport,57.2019,-2.19778,215,EU,United Kingdom,GB,Scotland,GB-SCT,SCT,Aberdeen,1,EGPD,ABZ,,http://www.aberdeenairport.com/,https://en.wikipedia.org/wiki/Aberdeen_Airport,,750,2021-10-06T17:37:51+00:00,阿伯丁机场
3523,KFAR,medium_airport,Hector International Airport,46.92070007324219,-96.81580352783203,902,NA,United States,US,North Dakota,US-ND,ND,Fargo,1,KFAR,FAR,FAR,http://www.fargoairport.com/,https://en.wikipedia.org/wiki/Hector_International_Airport,"119th Wing, Happy Hooligans",750,2008-06-13T14:30:04+00:00,
2669,ESMS,medium_airport,Malmö Sturup Airport,55.536305,13.376198,236,EU,Sweden,SE,Skåne län,SE-M,M,Malmö,1,ESMS,MMX,,http://www.swedavia.com/malmo/,https://en.wikipedia.org/wiki/Malm%C3%B6_Airport,,750,2021-11-20T16:21:16+00:00,
5967,SBRJ,medium_airport,Santos Dumont Airport,-22.910499572799996,-43.1631011963,11,SA,Brazil,BR,Rio de Janeiro,BR-RJ,RJ,Rio De Janeiro,1,SBRJ,SDU,,,https://en.wikipedia.org/wiki/Santos_Dumont_Airport,RIO,750,2010-09-07T10:37:03+00:00,
19552,KCRQ,medium_airport,McClellan-Palomar Airport,33.1283,-117.279999,331,NA,United States,US,California,US-CA,CA,Carlsbad,0,KCRQ,CLD,CRQ,,https://en.wikipedia.org/wiki/McClellan-Palomar_Airport,,250,2021-10-01T16:01:11+00:00,
20757,KOPF,medium_airport,Miami-Opa Locka Executive Airport,25.907,-80.278397,8,NA,United States,US,Florida,US-FL,FL,Miami,0,KOPF,OPF,OPF,http://www.miami-airport.com/html/opalocka.html,https://en.wikipedia.org/wiki/Miami-Opa_Locka_Executive_Airport,,250,2019-07-11T12:30:32+00:00,
19293,KAPF,medium_airport,Naples Municipal Airport,26.1525993347,-81.7752990723,8,NA,United States,US,Florida,US-FL,FL,Naples,0,KAPF,APF,APF,,https://en.wikipedia.org/wiki/Naples_Municipal_Airport,,250,2012-06-17T18:28:33+00:00,
4001,LEBB,medium_airport,Bilbao Airport,43.301102,-2.91061,138,EU,Spain,ES,Basque Country,ES-PV,PV,Bilbao,1,LEBB,BIO,,https://www.aena.es/en/bilbao.html,https://en.wikipedia.org/wiki/Bilbao_Airport,,750,2021-10-07T11:07:38+00:00,毕尔巴鄂机场
27101,YPDN,medium_airport,Darwin International Airport,-12.414322,130.879741,103,OC,Australia,AU,Northern Territory,AU-NT,NT,Darwin,1,YPDN,DRW,,http://www.darwin-airport.com.au/,https://en.wikipedia.org/wiki/Darwin_International_Airport,RAAF Base Darwin,750,2022-01-21T18:31:56+00:00,达尔文机场
3491,KDLH,medium_airport,Duluth International Airport,46.842098,-92.193604,1428,NA,United States,US,Minnesota,US-MN,MN,Duluth,1,KDLH,DLH,DLH,http://www.duluthairport.com/,https://en.wikipedia.org/wiki/Duluth_International_Airport,"LKI, Duluth Air National Guard Base, Lakeside AFB",750,2022-01-28T17:34:15+00:00,德卢司
3663,KMAF,medium_airport,Midland International Airport,31.9424991607666,-102.2020034790039,2871,NA,United States,US,Texas,US-TX,TX,Midland,1,KMAF,MAF,MAF,,https://en.wikipedia.org/wiki/Midland_International_Airport,,750,2008-06-13T14:30:04+00:00,
3700,KMOB,medium_airport,Mobile Regional Airport,30.6912,-88.242798,219,NA,United States,US,Alabama,US-AL,AL,Mobile,1,KMOB,MOB,MOB,http://www.mobairport.com/,https://en.wikipedia.org/wiki/Mobile_Regional_Airport,,750,2021-11-20T15:04:45+00:00,莫比尔机场
3789,KPRC,medium_airport,Prescott International Airport - Ernest A. Love Field,34.654499,-112.419998,5045,NA,United States,US,Arizona,US-AZ,AZ,Prescott,1,KPRC,PRC,PRC,,https://en.wikipedia.org/wiki/Ernest_A._Love_Field,,750,2021-11-20T15:32:33+00:00,
4279,LGRP,medium_airport,Diagoras Airport,36.405399322509766,28.086200714111328,17,EU,Greece,GR,Dodecanese,GR-81,81,Rodes Island,1,LGRP,RHO,,,https://en.wikipedia.org/wiki/Rhodes_International_Airport%2C_%26quot%3BDiagoras%26quot%3B,,750,2008-11-03T17:02:32+00:00,
2246,EDLV,medium_airport,Weeze Airport,51.6024017334,6.14216995239,106,EU,Germany,DE,North Rhine-Westphalia,DE-NW,NW,Weeze,1,EDLV,NRN,,http://www.airport-weeze.de/de,https://en.wikipedia.org/wiki/Airport_Weeze,"LRC, ETUL, Niederrhein Airport, RAF Laarbruch, Düsseldorf Regional",750,2015-12-20T02:34:42+00:00,
3861,KSAC,medium_airport,Sacramento Executive Airport,38.5125007629,-121.492996216,24,NA,United States,US,California,US-CA,CA,Sacramento,0,KSAC,SAC,SAC,http://www.sacramento.aero/sac/,https://en.wikipedia.org/wiki/Sacramento_Executive_Airport,"Sutterville Aerodrome, Sacramento Municipal",400,2014-08-16T16:38:14+00:00,
1854,CYPQ,medium_airport,Peterborough Municipal Airport,44.23,-78.363297,628,NA,Canada,CA,Ontario,CA-ON,ON,Peterborough,0,CYPQ,YPQ,,,https://en.wikipedia.org/wiki/Peterborough_Airport,,275,2022-02-11T17:19:46+00:00,彼得博勒机场
1837,CYOO,medium_airport,Oshawa Executive Airport,43.922798,-78.894997,460,NA,Canada,CA,Ontario,CA-ON,ON,Oshawa,0,CYOO,YOO,CYOO,http://www.oshawa-airport.com/,https://en.wikipedia.org/wiki/Oshawa_Airport,,250,2022-02-11T17:33:31+00:00,
3398,KBED,medium_airport,Laurence G Hanscom Field,42.47000122,-71.28900146,133,NA,United States,US,Massachusetts,US-MA,MA,Bedford,0,KBED,BED,BED,http://www.massport.com/hansc/,https://en.wikipedia.org/wiki/Hanscom_Field,Hanscom Air Force Base,750,2010-01-23T11:27:46+00:00,
2225,EDDW,medium_airport,Bremen Airport,53.047501,8.78667,14,EU,Germany,DE,Bremen,DE-HB,HB,Bremen,1,EDDW,BRE,,,https://en.wikipedia.org/wiki/Bremen_Airport,,750,2021-11-20T15:32:56+00:00,不来梅机场
3388,KAVP,medium_airport,Wilkes Barre Scranton International Airport,41.338500976599995,-75.72339630130001,962,NA,United States,US,Pennsylvania,US-PA,PA,Wilkes-Barre/Scranton,1,KAVP,AVP,AVP,http://www.flyavp.com/,https://en.wikipedia.org/wiki/Wilkes-Barre/Scranton_International_Airport,,750,2012-06-17T10:28:37+00:00,威尔克斯-巴里机场
19308,KASE,medium_airport,Aspen-Pitkin Co/Sardy Field,39.22320175,-106.8690033,7820,NA,United States,US,Colorado,US-CO,CO,Aspen,1,KASE,ASE,ASE,http://aspenairport.com/,https://en.wikipedia.org/wiki/Aspen%E2%80%93Pitkin_County_Airport,,500,2015-07-27T15:07:38+00:00,
21061,KSGJ,medium_airport,Northeast Florida Regional Airport,29.9592,-81.339798,10,NA,United States,US,Florida,US-FL,FL,St Augustine,1,KSGJ,UST,SGJ,http://www.flynf.com/,https://en.wikipedia.org/wiki/St._Augustine_Airport,"St Augustine Airport, NAAS St. Augustine",500,2017-08-11T08:36:05+00:00,
3356,KABE,medium_airport,Lehigh Valley International Airport,40.651773,-75.442797,393,NA,United States,US,Pennsylvania,US-PA,PA,Allentown,1,KABE,ABE,ABE,,https://en.wikipedia.org/wiki/Lehigh_Valley_International_Airport,,750,2022-03-04T10:29:37+00:00,阿伦敦机场
3429,KBTR,medium_airport,Baton Rouge Metropolitan Airport,30.533199,-91.149597,70,NA,United States,US,Louisiana,US-LA,LA,Baton Rouge,1,KBTR,BTR,BTR,,https://en.wikipedia.org/wiki/Baton_Rouge_Metropolitan_Airport,,750,2018-09-15T18:52:59+00:00,巴吞鲁日(瑞安)机场
3466,KCRP,medium_airport,Corpus Christi International Airport,27.770399,-97.501198,44,NA,United States,US,Texas,US-TX,TX,Corpus Christi,1,KCRP,CRP,CRP,,https://en.wikipedia.org/wiki/Corpus_Christi_International_Airport,,750,2021-11-20T15:35:15+00:00,科珀斯克里斯蒂
3125,GOOY,medium_airport,Léopold Sédar Senghor International Airport,14.7397,-17.4902,85,AF,Senegal,SN,Dakar Region,SN-DK,DK,Dakar,0,GOOY,DKR,,http://www.aeroportdakar.com/,https://en.wikipedia.org/wiki/Dakar-Yoff-L%C3%A9opold_S%C3%A9dar_Senghor_International_Airport,,750,2022-01-29T13:19:37+00:00,达喀尔机场
3619,KJAN,medium_airport,Jackson-Medgar Wiley Evers International Airport,32.311199,-90.075897,346,NA,United States,US,Mississippi,US-MS,MS,Jackson,1,KJAN,JAN,JAN,,https://en.wikipedia.org/wiki/Jackson-Evers_International_Airport,,750,2021-11-20T15:34:45+00:00,
3647,KLNK,medium_airport,Lincoln Airport,40.85100173950195,-96.75920104980469,1219,NA,United States,US,Nebraska,US-NE,NE,Lincoln,1,KLNK,LNK,LNK,http://www.lincolnairport.com/,https://en.wikipedia.org/wiki/Lincoln_Airport_%28Nebraska%29,"Lincoln Army Air Field, Lincoln Air Force Base, 155th Air Refueling Wing",750,2008-06-13T14:30:04+00:00,林肯机场
3693,KMLB,medium_airport,Melbourne Orlando International Airport,28.1028,-80.645302,33,NA,United States,US,Florida,US-FL,FL,Melbourne,1,KMLB,MLB,MLB,https://www.mlbair.com/,https://en.wikipedia.org/wiki/Melbourne_International_Airport,,750,2021-10-07T06:37:28+00:00,
1872,CYQM,medium_airport,Greater Moncton Roméo LeBlanc International Airport,46.112202,-64.678596,232,NA,Canada,CA,New Brunswick,CA-NB,NB,Moncton,1,CYQM,YQM,,https://cyqm.ca/,https://en.wikipedia.org/wiki/Greater_Moncton_International_Airport,"CYQM, YQM, Moncton",750,2020-04-17T02:11:08+00:00,
3854,KROA,medium_airport,Roanoke–Blacksburg Regional Airport,37.3255,-79.975403,1175,NA,United States,US,Virginia,US-VA,VA,Roanoke,1,KROA,ROA,ROA,http://www.roanokeairport.com/,https://en.wikipedia.org/wiki/Roanoke%E2%80%93Blacksburg_Regional_Airport,Woodrum Field,750,2021-11-20T15:34:21+00:00,罗阿诺克
4286,LGSR,medium_airport,Santorini Airport,36.399200439453125,25.479299545288086,127,EU,Greece,GR,Cyclades,GR-82,82,Santorini Island,1,LGSR,JTR,,,https://en.wikipedia.org/wiki/Santorini_(Thira)_National_Airport,,750,2008-11-03T17:02:40+00:00,圣托里尼机场
3609,KILM,medium_airport,Wilmington International Airport,34.270599365234375,-77.90260314941406,32,NA,United States,US,North Carolina,US-NC,NC,Wilmington,1,KILM,ILM,ILM,,https://en.wikipedia.org/wiki/Wilmington_International_Airport,,750,2008-06-13T14:30:04+00:00,
1969,CYXX,medium_airport,Abbotsford International Airport,49.025299,-122.361,195,NA,Canada,CA,British Columbia,CA-BC,BC,Abbotsford,1,CYXX,YXX,,http://www.abbotsfordairport.ca/,https://en.wikipedia.org/wiki/Abbotsford_International_Airport,,750,2021-11-20T16:10:32+00:00,
6360,TBPB,medium_airport,Grantley Adams International Airport,13.0746,-59.4925,169,NA,Barbados,BB,Christ Church,BB-01,01,Bridgetown,1,TBPB,BGI,,http://www.gaia.bb/content/about-gaia-inc,https://en.wikipedia.org/wiki/Grantley_Adams_International_Airport,Seawell,750,2019-11-13T17:37:52+00:00,布里奇敦
26878,WMKP,medium_airport,Penang International Airport,5.297140121459961,100.2770004272461,11,AS,Malaysia,MY,Pulau Pinang,MY-07,07,Penang,1,WMKP,PEN,,,https://en.wikipedia.org/wiki/Penang_International_Airport,,750,2008-08-17T17:08:57+00:00,槟城机场
3541,KFSD,medium_airport,Sioux Falls Regional Airport / Joe Foss Field,43.585463,-96.741152,1429,NA,United States,US,South Dakota,US-SD,SD,Sioux Falls,1,KFSD,FSD,FSD,http://www.sfairport.com/,https://en.wikipedia.org/wiki/Sioux_Falls_Regional_Airport,"Joe Foss Field, Fighting Lobos, Sioux Falls Army Air Base, 114th Fighter Wing, Sioux Falls Regional Airport",750,2021-03-03T12:12:22+00:00,苏福尔斯
2422,EGHI,medium_airport,Southampton Airport,50.950298,-1.3568,44,EU,United Kingdom,GB,England,GB-ENG,ENG,Southampton,1,EGHI,SOU,,http://www.southamptonairport.com/,https://en.wikipedia.org/wiki/Southampton_Airport,"RAF Eastleigh, RAF Southampton",750,2021-11-20T16:33:34+00:00,南安普敦机场
3689,KMKC,medium_airport,Charles B. Wheeler Downtown Airport,39.123199462890625,-94.5927963256836,759,NA,United States,US,Missouri,US-MO,MO,Kansas City,0,KMKC,MKC,MKC,,https://en.wikipedia.org/wiki/Charles_B._Wheeler_Downtown_Airport,,675,2008-09-27T20:47:45+00:00,
1768,CYHU,medium_airport,Montréal / Saint-Hubert Airport,45.5175018311,-73.4169006348,90,NA,Canada,CA,Quebec,CA-QC,QC,Montréal,1,CYHU,YHU,,http://www.dashl.ca/,https://en.wikipedia.org/wiki/Montr%C3%A9al/St-Hubert_Airport,,500,2011-04-23T14:03:44+00:00,
3467,KCRW,medium_airport,Yeager Airport,38.3731,-81.593201,981,NA,United States,US,West Virginia,US-WV,WV,Charleston,1,KCRW,CRW,CRW,,https://en.wikipedia.org/wiki/Yeager_Airport,,750,2021-11-20T16:31:05+00:00,
1881,CYQX,medium_airport,Gander International Airport,48.9369010925293,-54.56809997558594,496,NA,Canada,CA,Newfoundland and Labrador,CA-NL,NL,Gander,1,CYQX,YQX,,,https://en.wikipedia.org/wiki/Gander_International_Airport,CFB Gander,750,2008-06-13T14:30:04+00:00,
3857,KRST,medium_airport,Rochester International Airport,43.908298,-92.5,1317,NA,United States,US,Minnesota,US-MN,MN,Rochester,1,KRST,RST,RST,,https://en.wikipedia.org/wiki/Rochester_International_Airport,,750,2021-11-21T15:10:22+00:00,
3763,KPAE,medium_airport,Snohomish County (Paine Field) Airport,47.9063,-122.281998,606,NA,United States,US,Washington,US-WA,WA,Everett,1,KPAE,PAE,PAE,,https://en.wikipedia.org/wiki/Paine_Field,,500,2021-05-29T06:53:45+00:00,
21410,KXNA,medium_airport,Northwest Arkansas Regional Airport,36.281898,-94.306801,1287,NA,United States,US,Arkansas,US-AR,AR,Fayetteville/Springdale/Rogers,1,KXNA,XNA,XNA,http://www.flyxna.com/,https://en.wikipedia.org/wiki/Northwest_Arkansas_Regional_Airport,"Bentonville, Rogers",500,2022-02-16T08:14:31+00:00,
1908,CYSN,medium_airport,Niagara District Airport,43.19169998168945,-79.17169952392578,321,NA,Canada,CA,Ontario,CA-ON,ON,St Catharines,0,CYSN,YCM,,,https://en.wikipedia.org/wiki/St._Catharines/Niagara_District_Airport,YSN,250,2008-06-13T14:30:04+00:00,
2387,EGAC,medium_airport,George Best Belfast City Airport,54.618099,-5.8725,15,EU,United Kingdom,GB,Northern Ireland,GB-NIR,NIR,Belfast,1,EGAC,BHD,,http://www.belfastcityairport.com/,https://en.wikipedia.org/wiki/George_Best_Belfast_City_Airport,,750,2021-07-31T17:46:54+00:00,乔治·贝斯特贝尔法斯特机场
3530,KFLG,medium_airport,Flagstaff Pulliam International Airport,35.1385,-111.670998,7014,NA,United States,US,Arizona,US-AZ,AZ,Flagstaff,1,KFLG,FLG,FLG,,https://en.wikipedia.org/wiki/Flagstaff_Pulliam_Airport,,750,2021-11-21T15:10:54+00:00,弗拉格斯塔夫
26902,YBCG,medium_airport,Gold Coast Airport,-28.165962,153.506641,21,OC,Australia,AU,Queensland,AU-QLD,QLD,Gold Coast,1,YBCG,OOL,,,https://en.wikipedia.org/wiki/Gold_Coast_Airport,,750,2022-01-21T19:07:44+00:00,黄金海岸机场
3629,KLAN,medium_airport,Capital City Airport,42.77870178222656,-84.58740234375,861,NA,United States,US,Michigan,US-MI,MI,Lansing,1,KLAN,LAN,LAN,,https://en.wikipedia.org/wiki/Lansing_Capital_City_Airport,,750,2008-06-13T14:30:04+00:00,兰辛
3659,KLUK,medium_airport,Cincinnati Municipal Airport Lunken Field,39.10329819,-84.41860199,483,NA,United States,US,Ohio,US-OH,OH,Cincinnati,0,KLUK,LUK,LUK,,https://en.wikipedia.org/wiki/Cincinnati_Municipal_Airport,,475,2010-01-26T11:09:55+00:00,
3788,KPRB,medium_airport,Paso Robles Municipal Airport,35.67290115,-120.6269989,840,NA,United States,US,California,US-CA,CA,Paso Robles,0,KPRB,PRB,PRB,http://www.prcity.com/government/departments/publicworks/airport/,https://en.wikipedia.org/wiki/Paso_Robles_Municipal_Airport,,250,2016-01-08T22:57:23+00:00,
2530,EICK,medium_airport,Cork Airport,51.841301,-8.49111,502,EU,Ireland,IE,County Cork,IE-C,C,Cork,1,EICK,ORK,,http://www.corkairport.com/,https://en.wikipedia.org/wiki/Cork_Airport,Aerfort Chorcaí,750,2021-11-22T14:14:40+00:00,科克
4281,LGSA,medium_airport,Chania International Airport,35.531700134277344,24.149700164794922,490,EU,Greece,GR,Chania,GR-94,94,Souda,1,LGSA,CHQ,,,https://en.wikipedia.org/wiki/Chania_International_Airport,,750,2008-06-13T14:30:04+00:00,
4183,LFPB,medium_airport,Paris-Le Bourget Airport,48.969398498535156,2.441390037536621,218,EU,France,FR,Île-de-France,FR-IDF,IDF,Paris,0,LFPB,LBG,,http://www.aeroportsdeparis.fr/,https://en.wikipedia.org/wiki/Le_Bourget_Airport,PAR,275,2008-06-13T14:30:04+00:00,巴黎(巴黎布尔歇机场)
3545,KFTW,medium_airport,Fort Worth Meacham International Airport,32.819801,-97.362396,710,NA,United States,US,Texas,US-TX,TX,Fort Worth,0,KFTW,FTW,FTW,http://meacham.com/,https://en.wikipedia.org/wiki/Fort_Worth_Meacham_International_Airport,,750,2021-11-20T15:07:30+00:00,
3708,KMSO,medium_airport,Missoula International Airport,46.91630173,-114.0910034,3206,NA,United States,US,Montana,US-MT,MT,Missoula,1,KMSO,MSO,MSO,,https://en.wikipedia.org/wiki/Missoula_International_Airport,,750,2010-01-23T11:28:00+00:00,米苏拉机场
3961,KNYL,medium_airport,Yuma International Airport / Marine Corps Air Station Yuma,32.656601,-114.606003,213,NA,United States,US,Arizona,US-AZ,AZ,Yuma,1,KNYL,YUM,NYL,,https://en.wikipedia.org/wiki/Yuma_International_Airport,"Yuma MCAS, Yuma Marine Corps Air Station, Formerly KYUM",750,2021-11-20T15:36:11+00:00,
1891,CYRO,medium_airport,Ottawa / Rockcliffe Airport,45.4603004456,-75.64610290530001,188,NA,Canada,CA,Ontario,CA-ON,ON,Ottawa,0,CYRO,YRO,CYRO,http://www.rfc.ca/,https://en.wikipedia.org/wiki/Ottawa/Rockcliffe_Airport,YRO,250,2010-09-24T22:13:57+00:00,
3437,KBZN,medium_airport,Gallatin Field,45.77750015,-111.1529999,4473,NA,United States,US,Montana,US-MT,MT,Bozeman,1,KBZN,BZN,BZN,,https://en.wikipedia.org/wiki/Gallatin_Field_Airport,,750,2010-01-23T11:27:48+00:00,博兹曼贝尔格莱德机场
1730,CYFC,medium_airport,Fredericton Airport,45.868900299072266,-66.53720092773438,68,NA,Canada,CA,New Brunswick,CA-NB,NB,Fredericton,1,CYFC,YFC,,,https://en.wikipedia.org/wiki/Greater_Fredericton_Airport,,750,2008-06-13T14:30:04+00:00,弗雷德里克顿机场
2256,EDNY,medium_airport,Friedrichshafen Airport,47.671298980699994,9.51148986816,1367,EU,Germany,DE,Baden-Württemberg,DE-BW,BW,Friedrichshafen,1,EDNY,FDH,,,https://en.wikipedia.org/wiki/Friedrichshafen_Airport,,750,2010-08-29T21:12:02+00:00,
3551,KGCN,medium_airport,Grand Canyon National Park Airport,35.9524,-112.147003,6609,NA,United States,US,Arizona,US-AZ,AZ,Grand Canyon - Tusayan,1,KGCN,GCN,GCN,http://www.azdot.gov/aviation/airports/airports_list.asp?FAA=GCN,https://en.wikipedia.org/wiki/Grand_Canyon_National_Park_Airport,,750,2021-10-18T15:32:19+00:00,
3557,KGJT,medium_airport,Grand Junction Regional Airport,39.126663,-108.529387,4858,NA,United States,US,Colorado,US-CO,CO,Grand Junction,1,KGJT,GJT,GJT,http://www.gjairport.com/,https://en.wikipedia.org/wiki/Grand_Junction_Regional_Airport,,750,2021-10-13T10:57:04+00:00,大章克申
3390,KAZO,medium_airport,Kalamazoo Battle Creek International Airport,42.234901428222656,-85.5521011352539,874,NA,United States,US,Michigan,US-MI,MI,Kalamazoo,1,KAZO,AZO,AZO,,https://en.wikipedia.org/wiki/Kalamazoo-Battle_Creek_International_Airport,,750,2008-06-13T14:30:04+00:00,卡拉马祖/巴特尔克里克机场
26672,VTSM,medium_airport,Samui Airport,9.547789573669998,100.06199646,64,AS,Thailand,TH,Nakhon Si Thammarat Province,TH-80,80,Na Thon (Ko Samui Island),1,VTSM,USM,,http://www.samuiairportonline.com,https://en.wikipedia.org/wiki/Samui_Airport,,750,2010-08-30T15:52:48+00:00,苏梅岛机场
125,BIRK,medium_airport,Reykjavik Airport,64.1299972534,-21.9405994415,48,EU,Iceland,IS,Capital Region,IS-1,1,Reykjavik,1,BIRK,RKV,,,https://en.wikipedia.org/wiki/Reykjav%C3%ADk_Airport,REK,750,2016-01-04T17:22:01+00:00,
3794,KPUB,medium_airport,Pueblo Memorial Airport,38.289101,-104.497002,4726,NA,United States,US,Colorado,US-CO,CO,Pueblo,1,KPUB,PUB,PUB,,https://en.wikipedia.org/wiki/Pueblo_Memorial_Airport,,500,2021-07-31T17:03:20+00:00,
21065,KSGU,medium_airport,St George Regional Airport,37.036389,-113.510306,2941,NA,United States,US,Utah,US-UT,UT,St George,1,KSGU,SGU,SGU,https://www.flysgu.org,https://en.wikipedia.org/wiki/St._George_Regional_Airport,DXZ,500,2022-03-04T16:02:31+00:00,
3934,KTVL,medium_airport,Lake Tahoe Airport,38.89390182495117,-119.99500274658203,6264,NA,United States,US,California,US-CA,CA,South Lake Tahoe,0,KTVL,TVL,TVL,,https://en.wikipedia.org/wiki/Lake_Tahoe_Airport,,375,2008-06-13T14:30:04+00:00,
2592,ENRY,medium_airport,"Moss Airport, Rygge",59.378817,10.785439,174,EU,Norway,NO,Viken,NO-30,30,Oslo,0,ENRY,RYG,,http://www.en.ryg.no/,https://en.wikipedia.org/wiki/Moss_Airport%2C_Rygge,"Moss lufthavn Rygge, Rygge Air Station",300,2018-09-01T06:22:11+00:00,
3950,KVRB,medium_airport,Vero Beach Regional Airport,27.6556,-80.417901,24,NA,United States,US,Florida,US-FL,FL,Vero Beach,0,KVRB,VRB,VRB,http://verobeachairport.org/,https://en.wikipedia.org/wiki/Vero_Beach_Municipal_Airport,Vero Beach Municipal,275,2017-12-12T22:40:02+00:00,
3561,KGPT,medium_airport,Gulfport Biloxi International Airport,30.407301,-89.070099,28,NA,United States,US,Mississippi,US-MS,MS,Gulfport,1,KGPT,GPT,GPT,,https://en.wikipedia.org/wiki/Gulfport-Biloxi_International_Airport,,750,2021-11-20T15:05:23+00:00,
2572,ENCN,medium_airport,"Kristiansand Airport, Kjevik",58.204201,8.08537,57,EU,Norway,NO,Agder,NO-42,42,Kjevik,1,ENCN,KRS,,http://www.avinor.no/en/airport/kristiansand,https://en.wikipedia.org/wiki/Kristiansand_Airport%2C_Kjevik,,750,2021-10-02T10:38:19+00:00,克里斯蒂安桑机场
3925,KTOL,medium_airport,Eugene F. Kranz Toledo Express Airport,41.5868,-83.8078,683,NA,United States,US,Ohio,US-OH,OH,Toledo,1,KTOL,TOL,TOL,,https://en.wikipedia.org/wiki/Toledo_Express_Airport,,750,2021-10-12T12:01:10+00:00,托莱多
2569,ENBO,medium_airport,Bodø Airport,67.269203,14.3653,42,EU,Norway,NO,Nordland,NO-18,18,Bodø,1,ENBO,BOO,,http://www.avinor.no/en/airport/bodo/frontpage,https://en.wikipedia.org/wiki/Bod%C3%B8_Airport,"Bodø Air Force Base, Bodø Main Air Station",750,2021-11-22T14:10:03+00:00,波尔多
27131,YSCB,medium_airport,Canberra International Airport,-35.3069,149.195007,1886,OC,Australia,AU,Australian Capital Territory,AU-ACT,ACT,Canberra,1,YSCB,CBR,,,https://en.wikipedia.org/wiki/Canberra_International_Airport,RAAF Base Fairbairn,750,2021-11-21T16:31:16+00:00,堪培拉机场
3571,KGTF,medium_airport,Great Falls International Airport,47.48199844,-111.3710022,3680,NA,United States,US,Montana,US-MT,MT,Great Falls,1,KGTF,GTF,GTF,,https://en.wikipedia.org/wiki/Great_Falls_International_Airport,,750,2010-01-23T11:27:52+00:00,大瀑布城
2460,EGPE,medium_airport,Inverness Airport,57.54249954223633,-4.047500133514404,31,EU,United Kingdom,GB,Scotland,GB-SCT,SCT,Inverness,1,EGPE,INV,,http://www.hial.co.uk/inverness-airport.html,https://en.wikipedia.org/wiki/Inverness_Airport,,750,2009-02-24T17:24:17+00:00,
4264,LGKO,medium_airport,Kos Airport,36.79330062866211,27.091699600219727,412,EU,Greece,GR,Dodecanese,GR-81,81,Kos Island,1,LGKO,KGS,,,https://en.wikipedia.org/wiki/Kos_Island_International_Airport,,750,2008-11-03T17:02:02+00:00,
4732,MMMY,medium_airport,General Mariano Escobedo International Airport,25.7785,-100.107002,1278,NA,Mexico,MX,Nuevo León,MX-NLE,NLE,Monterrey,1,MMMY,MTY,,,https://en.wikipedia.org/wiki/General_Mariano_Escobedo_International_Airport,,750,2021-11-21T15:12:42+00:00,蒙特雷
3770,KPHF,medium_airport,Newport News Williamsburg International Airport,37.131901,-76.492996,42,NA,United States,US,Virginia,US-VA,VA,Newport News,1,KPHF,PHF,PHF,,https://en.wikipedia.org/wiki/Newport_News/Williamsburg_International_Airport,,750,2021-11-20T15:37:36+00:00,
3882,KSHV,medium_airport,Shreveport Regional Airport,32.446602,-93.8256,258,NA,United States,US,Louisiana,US-LA,LA,Shreveport,1,KSHV,SHV,SHV,,https://en.wikipedia.org/wiki/Shreveport_Regional_Airport,,750,2018-09-15T19:00:21+00:00,什里夫波特
3617,KIWA,medium_airport,Phoenix–Mesa Gateway Airport,33.3078,-111.654999,1382,NA,United States,US,Arizona,US-AZ,AZ,Mesa,1,KIWA,AZA,IWA,http://www.flywga.org/,https://en.wikipedia.org/wiki/Phoenix%E2%80%93Mesa_Gateway_Airport,"Williams Air Force Base, Williams Gateway Airport",500,2021-10-18T15:31:30+00:00,
3414,KBKL,medium_airport,Burke Lakefront Airport,41.51750183105469,-81.68329620361328,583,NA,United States,US,Ohio,US-OH,OH,Cleveland,0,KBKL,BKL,BKL,http://www.clevelandairport.com/site/470/default.aspx,https://en.wikipedia.org/wiki/Cleveland_Burke_Lakefront_Airport,,375,2009-06-29T22:27:01+00:00,克利夫兰伯克莱克夫兰特机场
2564,ENAL,medium_airport,"Ålesund Airport, Vigra",62.5625,6.1197,69,EU,Norway,NO,Møre og Romsdal,NO-15,15,Ålesund,1,ENAL,AES,,http://www.avinor.no/lufthavn/alesund,https://en.wikipedia.org/wiki/%C3%85lesund_Airport%2C_Vigra,Vigra,750,2021-10-02T10:38:55+00:00,奥勒松机场
3455,KCLL,medium_airport,Easterwood Field,30.58860016,-96.36380005,320,NA,United States,US,Texas,US-TX,TX,College Station,1,KCLL,CLL,CLL,,https://en.wikipedia.org/wiki/Easterwood_Airport,,750,2010-01-23T11:27:48+00:00,Easterwood Field机场
3535,KFNT,medium_airport,Bishop International Airport,42.96540069580078,-83.74359893798828,782,NA,United States,US,Michigan,US-MI,MI,Flint,1,KFNT,FNT,FNT,,https://en.wikipedia.org/wiki/Bishop_International_Airport,,750,2008-06-13T14:30:04+00:00,弗林特
4430,LOWG,medium_airport,Graz Airport,46.9911,15.4396,1115,EU,Austria,AT,Styria,AT-6,6,Graz (Feldkirchen bei Graz),1,LOWG,GRZ,,http://www.flughafen-graz.at/,https://en.wikipedia.org/wiki/Graz_Airport,"Thalerhof Airport, Fliegerhorst Nittner, Nittner Air Base",750,2021-02-22T15:47:44+00:00,格拉茨
6184,SLLP,medium_airport,El Alto International Airport,-16.5132999420166,-68.19229888916016,13355,SA,Bolivia,BO,La Paz Department,BO-L,L,La Paz / El Alto,1,SLLP,LPB,,,https://en.wikipedia.org/wiki/El_Alto_International_Airport,,750,2008-07-14T12:56:12+00:00,EL ALTO机场
3678,KMFE,medium_airport,McAllen Miller International Airport,26.176141,-98.237965,107,NA,United States,US,Texas,US-TX,TX,McAllen,1,KMFE,MFE,MFE,,https://en.wikipedia.org/wiki/McAllen-Miller_International_Airport,,750,2021-07-30T14:52:03+00:00,
4021,LEMH,medium_airport,Menorca Airport,39.862598,4.21865,302,EU,Spain,ES,Baleares,ES-PM,PM,Menorca Island,1,LEMH,MAH,,https://www.aena.es/en/menorca.html,https://en.wikipedia.org/wiki/Menorca_Airport,,750,2021-10-07T11:22:45+00:00,
4221,LFRS,medium_airport,Nantes Atlantique Airport,47.153198242200006,-1.61073005199,90,EU,France,FR,Pays-de-la-Loire,FR-PDL,PDL,Nantes,1,LFRS,NTE,,,https://en.wikipedia.org/wiki/Nantes_Atlantique_Airport,,750,2010-08-31T21:50:59+00:00,南特
3360,KACK,medium_airport,Nantucket Memorial Airport,41.25310135,-70.06020355,47,NA,United States,US,Massachusetts,US-MA,MA,Nantucket,1,KACK,ACK,ACK,,https://en.wikipedia.org/wiki/Nantucket_Memorial_Airport,,750,2010-01-23T11:27:45+00:00,楠塔基特机场
3791,KPSM,medium_airport,Portsmouth International at Pease Airport,43.0778999329,-70.8233032227,100,NA,United States,US,New Hampshire,US-NH,NH,Portsmouth,1,KPSM,PSM,PSM,,https://en.wikipedia.org/wiki/Pease_International_Airport,,750,2009-12-14T10:39:21+00:00,
3459,KCMI,medium_airport,University of Illinois Willard Airport,40.039819,-88.276249,755,NA,United States,US,Illinois,US-IL,IL,Savoy,1,KCMI,CMI,CMI,,https://en.wikipedia.org/wiki/University_of_Illinois_Willard_Airport,"Champaign, Urbana",750,2022-03-04T14:23:50+00:00,
3402,KBFL,medium_airport,Meadows Field,35.433601,-119.056999,510,NA,United States,US,California,US-CA,CA,Bakersfield,1,KBFL,BFL,BFL,,https://en.wikipedia.org/wiki/Meadows_Field_Airport,,500,2021-04-14T15:21:17+00:00,
3539,KFRG,medium_airport,Republic Airport,40.7288017273,-73.4133987427,82,NA,United States,US,New York,US-NY,NY,Farmingdale,0,KFRG,FRG,FRG,http://www.republicairport.net/,https://en.wikipedia.org/wiki/Republic_Airport,Fairchild Flying Field,300,2014-09-18T22:31:03+00:00,
20821,KPGA,medium_airport,Page Municipal Airport,36.92610168,-111.447998,4316,NA,United States,US,Arizona,US-AZ,AZ,Page,0,KPGA,PGA,PGA,,https://en.wikipedia.org/wiki/Page_Municipal_Airport,,250,2013-01-12T16:56:11+00:00,
2008,CZBB,medium_airport,Boundary Bay Airport,49.0742,-123.012001,6,NA,Canada,CA,British Columbia,CA-BC,BC,Vancouver,0,CZBB,YDT,,http://http://czbb.com/,https://en.wikipedia.org/wiki/Boundary_Bay_Airport,ZBB,250,2018-10-22T12:38:41+00:00,
3409,KBIS,medium_airport,Bismarck Municipal Airport,46.772701263427734,-100.74600219726562,1661,NA,United States,US,North Dakota,US-ND,ND,Bismarck,1,KBIS,BIS,BIS,http://bismarckairport.com/,https://en.wikipedia.org/wiki/Bismarck_Municipal_Airport,,750,2008-06-13T14:30:04+00:00,俾斯麦机场
3505,KEGE,medium_airport,Eagle County Regional Airport,39.64260101,-106.9179993,6548,NA,United States,US,Colorado,US-CO,CO,Eagle,1,KEGE,EGE,EGE,http://www.eaglecounty.us/airport/,https://en.wikipedia.org/wiki/Eagle_County_Regional_Airport,,750,2015-07-27T15:08:23+00:00,
4946,MYGF,medium_airport,Grand Bahama International Airport,26.5587005615,-78.695602417,7,NA,Bahamas,BS,City of Freeport,BS-FP,FP,Freeport,1,MYGF,FPO,,,https://en.wikipedia.org/wiki/Grand_Bahama_International_Airport,,750,2010-08-31T22:53:12+00:00,
4452,LPMA,medium_airport,Madeira International Airport Cristiano Ronaldo,32.697899,-16.7745,192,EU,Portugal,PT,Autonomous Region of Madeira,PT-30,30,Funchal,1,LPMA,FNC,,http://www.ana.pt/en-US/Aeroportos/Madeira/Funchal/Pages/default.aspx,https://en.wikipedia.org/wiki/Madeira_Airport,"LPFU, Madeira, Funchal",750,2021-12-03T02:16:24+00:00,
1784,CYKA,medium_airport,Kamloops Airport,50.7022018433,-120.444000244,1133,NA,Canada,CA,British Columbia,CA-BC,BC,Kamloops,1,CYKA,YKA,,,https://en.wikipedia.org/wiki/Kamloops_Airport,,750,2014-03-15T23:41:25+00:00,坎卢普斯
3679,KMFR,medium_airport,Rogue Valley International Medford Airport,42.37419891357422,-122.87300109863281,1335,NA,United States,US,Oregon,US-OR,OR,Medford,1,KMFR,MFR,MFR,,https://en.wikipedia.org/wiki/Rogue_Valley_International-Medford_Airport,,750,2008-06-13T14:30:04+00:00,
5051,NZQN,medium_airport,Queenstown International Airport,-45.021099,168.738998,1171,OC,New Zealand,NZ,Otago Region,NZ-OTA,OTA,Queenstown,1,NZQN,ZQN,,,https://en.wikipedia.org/wiki/Queenstown_International_Airport,,750,2020-10-12T10:14:25+00:00,皇后镇机场
4469,LQSA,medium_airport,Sarajevo International Airport,43.8246,18.331499,1708,EU,Bosnia and Herzegovina,BA,Federation of Bosnia and Herzegovina,BA-BIH,BIH,Sarajevo,1,LQSA,SJJ,,http://www.sarajevo-airport.ba/,https://en.wikipedia.org/wiki/Sarajevo_International_Airport,,750,2021-11-21T15:13:33+00:00,萨拉热窝
1897,CYSB,medium_airport,Sudbury Airport,46.625,-80.79889678955078,1141,NA,Canada,CA,Ontario,CA-ON,ON,Sudbury,1,CYSB,YSB,,,https://en.wikipedia.org/wiki/Sudbury_Airport,,750,2008-06-13T14:30:04+00:00,萨德伯里机场
3929,KTTN,medium_airport,Trenton Mercer Airport,40.27669906616211,-74.8134994506836,213,NA,United States,US,New Jersey,US-NJ,NJ,Trenton,1,KTTN,TTN,TTN,,https://en.wikipedia.org/wiki/Trenton-Mercer_Airport,,750,2008-06-13T14:30:04+00:00,
3361,KACT,medium_airport,Waco Regional Airport,31.611299514770508,-97.23049926757812,516,NA,United States,US,Texas,US-TX,TX,Waco,1,KACT,ACT,ACT,,https://en.wikipedia.org/wiki/Waco_Regional_Airport,,750,2008-06-13T14:30:04+00:00,瓦科地区机场
1970,CYXY,medium_airport,Whitehorse / Erik Nielsen International Airport,60.709599,-135.067001,2317,NA,Canada,CA,Yukon,CA-YT,YT,Whitehorse,1,CYXY,YXY,,,https://en.wikipedia.org/wiki/Whitehorse_International_Airport,,750,2021-11-20T15:38:06+00:00,埃里克·尼尔森怀特霍斯机场
3560,KGON,medium_airport,Groton New London Airport,41.330101013183594,-72.04509735107422,9,NA,United States,US,Connecticut,US-CT,CT,Groton (New London),0,KGON,GON,GON,,https://en.wikipedia.org/wiki/Groton-New_London_Airport,,475,2008-06-13T14:30:04+00:00,
1682,CYBW,medium_airport,Calgary / Springbank Airport,51.1031,-114.374001,3940,NA,Canada,CA,Alberta,CA-AB,AB,Calgary,0,CYBW,,,http://www.ybw.ca/,https://en.wikipedia.org/wiki/Calgary/Springbank_Airport,YBW,250,2019-10-08T00:44:37+00:00,
1740,CYGD,medium_airport,Goderich Airport,43.7668991089,-81.7106018066,712,NA,Canada,CA,Ontario,CA-ON,ON,Goderich,0,CYGD,,YGD,http://www.goderich.ca/en/townhall/airport.asp,https://en.wikipedia.org/wiki/Goderich_Airport,,250,2013-04-21T16:35:41+00:00,
3518,KEVV,medium_airport,Evansville Regional Airport,38.0369987488,-87.5324020386,418,NA,United States,US,Indiana,US-IN,IN,Evansville,1,KEVV,EVV,EVV,,https://en.wikipedia.org/wiki/Evansville_Regional_Airport,,750,2010-09-24T10:24:09+00:00,
26669,VTSG,medium_airport,Krabi Airport,8.09912014008,98.9861984253,82,AS,Thailand,TH,Krabi Province,TH-81,81,Krabi,1,VTSG,KBV,,,https://en.wikipedia.org/wiki/Krabi_Airport,,750,2010-09-01T19:17:14+00:00,甲米机场
4161,LFMT,medium_airport,Montpellier-Méditerranée Airport,43.57619857788086,3.96301007270813,17,EU,France,FR,Occitanie,FR-OCC,OCC,Montpellier/Méditerranée,1,LFMT,MPL,,,https://en.wikipedia.org/wiki/Montpellier_-_M%C3%A9diterran%C3%A9e_Airport,,750,2008-06-13T14:30:04+00:00,蒙彼利埃地中海机场
1687,CYCD,medium_airport,Nanaimo Airport,49.05497,-123.869863,92,NA,Canada,CA,British Columbia,CA-BC,BC,Nanaimo,1,CYCD,YCD,,https://www.nanaimoairport.com/,https://en.wikipedia.org/wiki/Nanaimo_Airport,,750,2022-01-09T11:00:34+00:00,
1824,CYND,medium_airport,Ottawa / Gatineau Airport,45.521702,-75.563599,211,NA,Canada,CA,Quebec,CA-QC,QC,Gatineau,1,CYND,YND,CYND,http://www.ego-airport.ca/english/propos_ego/,https://en.wikipedia.org/wiki/Ottawa-Gatineau_Airport,YND,500,2019-10-02T21:09:26+00:00,加蒂诺机场
3538,KFPR,medium_airport,St Lucie County International Airport,27.49510002,-80.36830139,24,NA,United States,US,Florida,US-FL,FL,Fort Pierce,0,KFPR,FPR,FPR,,https://en.wikipedia.org/wiki/St._Lucie_County_International_Airport,,250,2010-01-23T11:27:50+00:00,
3368,KAGS,medium_airport,Augusta Regional At Bush Field,33.3699,-81.9645,144,NA,United States,US,Georgia,US-GA,GA,Augusta,1,KAGS,AGS,AGS,,https://en.wikipedia.org/wiki/Augusta_Regional_Airport,,750,2021-11-20T15:40:33+00:00,Augusta Regional机场
6109,SKCG,medium_airport,Rafael Nuñez International Airport,10.4424,-75.513,4,SA,Colombia,CO,Bolívar Department,CO-BOL,BOL,Cartagena,1,SKCG,CTG,CTG,,https://en.wikipedia.org/wiki/Rafael_N%C3%BA%C3%B1ez_International_Airport,,750,2009-10-20T10:46:09+00:00,卡塔赫纳机场
1977,CYYG,medium_airport,Charlottetown Airport,46.290000915527344,-63.12110137939453,160,NA,Canada,CA,Prince Edward Island,CA-PE,PE,Charlottetown,1,CYYG,YYG,,,https://en.wikipedia.org/wiki/Charlottetown_Airport,PEI,750,2008-06-13T14:30:04+00:00,夏洛特城机场
26697,VVDN,medium_airport,Da Nang International Airport,16.0439,108.198997,33,AS,Vietnam,VN,South Central Coast Region,VN-SCC,SCC,Da Nang,1,VVDN,DAD,,,https://en.wikipedia.org/wiki/Da_Nang_International_Airport,"Danang, Cảng Hàng không Quốc tế Đà Nẵng",750,2021-11-22T14:15:16+00:00,岘港机场
3510,KELM,medium_airport,Elmira Corning Regional Airport,42.1599006652832,-76.8916015625,954,NA,United States,US,New York,US-NY,NY,Elmira/Corning,1,KELM,ELM,ELM,,https://en.wikipedia.org/wiki/Elmira-Corning_Regional_Airport,,750,2008-06-13T14:30:04+00:00,
6416,TXKF,medium_airport,L.F. Wade International International Airport,32.36399841308594,-64.67870330810547,12,NA,Bermuda,BM,(unassigned),BM-U-A,U-A,Hamilton,1,TXKF,BDA,,http://www.bermudaairport.com/,https://en.wikipedia.org/wiki/Bermuda_International_Airport,"Kindley Air Force Base, Fort Bell Army Airfield, NAS Bermuda, Naval Air Station Bermuda",750,2009-04-10T23:09:38+00:00,百慕大
3681,KMGM,medium_airport,Montgomery Regional (Dannelly Field) Airport,32.300598,-86.393997,221,NA,United States,US,Alabama,US-AL,AL,Montgomery,1,KMGM,MGM,MGM,http://www.flymgm.com/,https://en.wikipedia.org/wiki/Montgomery_Regional_Airport,,750,2021-11-20T15:40:06+00:00,蒙哥马利机场
3893,KSMX,medium_airport,Santa Maria Public Airport Captain G Allan Hancock Field,34.898899,-120.457001,261,NA,United States,US,California,US-CA,CA,Santa Maria,1,KSMX,SMX,SMX,,https://en.wikipedia.org/wiki/Santa_Maria_Public_Airport,,750,2021-10-15T21:34:41+00:00,
3084,GCXO,medium_airport,Tenerife Norte-Ciudad de La Laguna Airport,28.4827,-16.341499,2076,EU,Spain,ES,Canary Islands,ES-CN,CN,Tenerife,1,GCXO,TFN,,https://www.aena.es/en/tenerife-norte-ciudad-de-la-laguna.html,https://en.wikipedia.org/wiki/Los_Rodeos_Airport,"Canary Islands, Los Rodeos, TCI",750,2021-11-21T15:14:05+00:00,北特内里费机场
1867,CYQG,medium_airport,Windsor Airport,42.27560043334961,-82.95559692382812,622,NA,Canada,CA,Ontario,CA-ON,ON,Windsor,1,CYQG,YQG,,,https://en.wikipedia.org/wiki/Windsor_Airport,,750,2008-06-13T14:30:04+00:00,温莎机场
3558,KGLS,medium_airport,Scholes International At Galveston Airport,29.265300750732422,-94.86039733886719,6,NA,United States,US,Texas,US-TX,TX,Galveston,0,KGLS,GLS,GLS,,,,475,2008-06-13T14:30:04+00:00,
3411,KBJC,medium_airport,Rocky Mountain Metropolitan Airport,39.90879822,-105.1169968,5673,NA,United States,US,Colorado,US-CO,CO,Denver,0,KBJC,BJC,BJC,,https://en.wikipedia.org/wiki/Rocky_Mountain_Metropolitan_Airport,"Jefferson County Airport, Jeffco Airport",400,2012-06-30T14:26:46+00:00,
19550,KCRG,medium_airport,Jacksonville Executive at Craig Airport,30.3362998962,-81.51439666750001,41,NA,United States,US,Florida,US-FL,FL,Jacksonville,0,KCRG,CRG,CRG,http://www.flyjacksonville.com/content.aspx?id=86,https://en.wikipedia.org/wiki/Jacksonville_Executive_at_Craig_Airport,Craig Municipal Airport,250,2014-08-02T21:04:27+00:00,
1892,CYRP,medium_airport,Ottawa / Carp Airport,45.3191986084,-76.0222015381,382,NA,Canada,CA,Ontario,CA-ON,ON,Ottawa,0,CYRP,,YRP,http://www.cyrp.ca/,https://en.wikipedia.org/wiki/Ottawa/Carp_Airport,YRP,250,2013-04-25T01:42:27+00:00,
20054,KHIO,medium_airport,Portland Hillsboro Airport,45.540401,-122.949997,208,NA,United States,US,Oregon,US-OR,OR,Portland,0,KHIO,HIO,HIO,http://www.flypdx.com/Airports/Hillsboro/,https://en.wikipedia.org/wiki/Hillsboro_Airport,,250,2016-05-30T11:48:50+00:00,
21220,KTRK,medium_airport,Truckee Tahoe Airport,39.319999694799996,-120.13999939,5900,NA,United States,US,California,US-CA,CA,Truckee,0,KTRK,TKF,TRK,,https://en.wikipedia.org/wiki/Truckee_Tahoe_Airport,,250,2015-01-29T14:21:27+00:00,
3363,KACY,medium_airport,Atlantic City International Airport,39.45759963989258,-74.57720184326172,75,NA,United States,US,New Jersey,US-NJ,NJ,Atlantic City,1,KACY,ACY,ACY,,https://en.wikipedia.org/wiki/Atlantic_City_International_Airport,,750,2008-06-13T14:30:04+00:00,大西洋城机场
3419,KBMI,medium_airport,Central Illinois Regional Airport at Bloomington-Normal,40.4771,-88.915901,871,NA,United States,US,Illinois,US-IL,IL,Bloomington/Normal,1,KBMI,BMI,BMI,,https://en.wikipedia.org/wiki/Central_Illinois_Regional_Airport,,750,2021-11-20T15:38:55+00:00,
3397,KBDR,medium_airport,Igor I Sikorsky Memorial Airport,41.16350173950195,-73.1261978149414,9,NA,United States,US,Connecticut,US-CT,CT,Bridgeport,1,KBDR,BDR,BDR,,https://en.wikipedia.org/wiki/Sikorsky_Memorial_Airport,,750,2008-06-13T14:30:04+00:00,布里奇波特机场
3465,KCPR,medium_airport,Casper-Natrona County International Airport,42.908001,-106.463997,5350,NA,United States,US,Wyoming,US-WY,WY,Casper,1,KCPR,CPR,CPR,,https://en.wikipedia.org/wiki/Natrona_County_International_Airport,,750,2018-12-27T21:30:47+00:00,
2515,EHBK,medium_airport,Maastricht Aachen Airport,50.911701,5.77014,375,EU,Netherlands,NL,Limburg,NL-LI,LI,Maastricht,1,EHBK,MST,,,https://en.wikipedia.org/wiki/Maastricht_Aachen_Airport,,750,2019-01-13T21:19:04+00:00,马斯特里赫特
3695,KMLI,medium_airport,Quad City International Airport,41.448502,-90.5075,590,NA,United States,US,Illinois,US-IL,IL,Moline,1,KMLI,MLI,MLI,,https://en.wikipedia.org/wiki/Quad_City_International_Airport,,750,2021-11-20T15:39:23+00:00,莫林机场
6410,TTPP,medium_airport,Piarco International Airport,10.595399856567383,-61.33720016479492,58,NA,Trinidad and Tobago,TT,Tunapuna-Piarco,TT-TUP,TUP,Port of Spain,1,TTPP,POS,,,https://en.wikipedia.org/wiki/Piarco_International_Airport,,750,2009-02-07T21:27:12+00:00,
3841,KRDD,medium_airport,Redding Municipal Airport,40.50899887,-122.2929993,505,NA,United States,US,California,US-CA,CA,Redding,1,KRDD,RDD,RDD,,https://en.wikipedia.org/wiki/Redding_Municipal_Airport,,750,2010-01-23T11:28:05+00:00,
1657,CYAM,medium_airport,Sault Ste Marie Airport,46.485001,-84.509399,630,NA,Canada,CA,Ontario,CA-ON,ON,Sault Ste Marie,1,CYAM,YAM,,http://www.saultairport.com/,https://en.wikipedia.org/wiki/Sault_Ste._Marie_Airport,,750,2019-09-30T17:27:03+00:00,苏圣玛丽机场
3933,KTVC,medium_airport,Cherry Capital Airport,44.74140167236328,-85.58219909667969,624,NA,United States,US,Michigan,US-MI,MI,Traverse City,1,KTVC,TVC,TVC,,https://en.wikipedia.org/wiki/Cherry_Capital_Airport,,750,2008-06-13T14:30:04+00:00,
3948,KVPS,medium_airport,Destin-Fort Walton Beach Airport,30.4832,-86.525398,87,NA,United States,US,Florida,US-FL,FL,Valparaiso,1,KVPS,VPS,VPS,http://www.flyvps.com/,https://en.wikipedia.org/wiki/Destin%E2%80%93Fort_Walton_Beach_Airport,Eglin AFB,750,2021-11-20T15:43:19+00:00,
3746,KOGD,medium_airport,Ogden Hinckley Airport,41.195899963379,-112.0120010376,4473,NA,United States,US,Utah,US-UT,UT,Ogden,1,KOGD,OGD,OGD,http://flyogden.com/,https://en.wikipedia.org/wiki/Ogden-Hinckley_Airport,,500,2015-09-10T21:38:51+00:00,
26787,WARJ,medium_airport,Adisutjipto International Airport,-7.78818,110.431999,379,AS,Indonesia,ID,Yogyakarta,ID-YO,YO,Yogyakarta-Java Island,1,WAHH,JOG,,http://adisutjipto-airport.co.id/,https://en.wikipedia.org/wiki/Adisutjipto_International_Airport,"WIIJ,WARJ",500,2021-11-20T15:43:49+00:00,日惹
3576,KHFD,medium_airport,Hartford Brainard Airport,41.736698150635,-72.649398803711,18,NA,United States,US,Connecticut,US-CT,CT,Hartford,0,KHFD,HFD,HFD,,https://en.wikipedia.org/wiki/Hartford-Brainard_Airport,,250,2015-10-13T13:44:58+00:00,哈特福德
3928,KTRI,medium_airport,Tri-Cities Regional TN/VA Airport,36.475201,-82.407401,1519,NA,United States,US,Tennessee,US-TN,TN,Bristol/Johnson/Kingsport,1,KTRI,TRI,TRI,,https://en.wikipedia.org/wiki/Tri-Cities_Regional_Airport,,750,2021-11-20T15:42:49+00:00,
6369,TIST,medium_airport,Cyril E. King Airport,18.337091,-64.977251,23,NA,U.S. Virgin Islands,VI,(unassigned),VI-U-A,U-A,Charlotte Amalie,1,TIST,STT,STT,http://www.viport.com/airports.html,https://en.wikipedia.org/wiki/Cyril_E._King_Airport,Harry S. Truman Airport,750,2021-11-02T15:30:44+00:00,
3476,KCYS,medium_airport,Cheyenne Regional Jerry Olson Field,41.15570068,-104.8119965,6159,NA,United States,US,Wyoming,US-WY,WY,Cheyenne,1,KCYS,CYS,CYS,,https://en.wikipedia.org/wiki/Cheyenne_Regional_Airport,,750,2010-01-23T11:27:50+00:00,夏延河
4574,LXGB,medium_airport,Gibraltar Airport,36.151199,-5.34966,12,EU,Gibraltar,GI,(unassigned),GI-U-A,U-A,Gibraltar,1,LXGB,GIB,,,https://en.wikipedia.org/wiki/Gibraltar_Airport,,750,2021-12-07T07:10:24+00:00,直布罗陀
2435,EGMC,medium_airport,Southend Airport,51.5714,0.695556,49,EU,United Kingdom,GB,England,GB-ENG,ENG,London,1,EGMC,SEN,,http://www.southendairport.com/,https://en.wikipedia.org/wiki/London_Southend_Airport,RAF Rochford,750,2021-04-10T16:57:43+00:00,
4274,LGMK,medium_airport,Mikonos Airport,37.43510055541992,25.348100662231445,405,EU,Greece,GR,Cyclades,GR-82,82,Mykonos Island,1,LGMK,JMK,,,https://en.wikipedia.org/wiki/Mykonos_Island_National_Airport,,750,2008-11-03T17:02:20+00:00,
3773,KPIA,medium_airport,General Wayne A. Downing Peoria International Airport,40.6642,-89.693298,660,NA,United States,US,Illinois,US-IL,IL,Peoria,1,KPIA,PIA,PIA,,https://en.wikipedia.org/wiki/General_Wayne_A._Downing_Peoria_International_Airport,Peoria International Airport,750,2021-11-20T15:42:11+00:00,
1966,CYXS,medium_airport,Prince George Airport,53.8894004822,-122.679000854,2267,NA,Canada,CA,British Columbia,CA-BC,BC,Prince George,1,CYXS,YXS,,,https://en.wikipedia.org/wiki/Prince_George_Airport,,750,2014-03-18T22:18:40+00:00,乔治皇子城机场
3884,KSJT,medium_airport,San Angelo Regional Mathis Field,31.35770034790039,-100.49600219726562,1919,NA,United States,US,Texas,US-TX,TX,San Angelo,1,KSJT,SJT,SJT,,https://en.wikipedia.org/wiki/San_Angelo_Regional_Airport,,750,2008-06-13T14:30:04+00:00,圣安吉洛
20193,KITH,medium_airport,Ithaca Tompkins Regional Airport,42.49100112915039,-76.4583969116211,1099,NA,United States,US,New York,US-NY,NY,Ithaca,1,KITH,ITH,ITH,,https://en.wikipedia.org/wiki/Ithaca_Tompkins_Regional_Airport,,500,2009-06-26T08:34:12+00:00,
20053,KHII,medium_airport,Lake Havasu City International Airport,34.571098,-114.358002,783,NA,United States,US,Arizona,US-AZ,AZ,Lake Havasu City,1,KHII,HII,HII,,https://en.wikipedia.org/wiki/Lake_Havasu_City_Airport,,500,2021-08-22T04:50:04+00:00,
20564,KMTH,medium_airport,The Florida Keys Marathon Airport,24.726101,-81.051399,5,NA,United States,US,Florida,US-FL,FL,Marathon,0,KMTH,MTH,MTH,http://marathonga.com/,https://en.wikipedia.org/wiki/Florida_Keys_Marathon_Airport,,250,2018-05-02T14:53:28+00:00,
20785,KOXR,medium_airport,Oxnard Airport,34.200801849365,-119.20700073242,45,NA,United States,US,California,US-CA,CA,Oxnard,0,KOXR,OXR,OXR,,https://en.wikipedia.org/wiki/Oxnard_Airport,,250,2015-08-06T03:55:58+00:00,
2152,EBAW,medium_airport,Antwerp International Airport (Deurne),51.1894,4.46028,39,EU,Belgium,BE,Antwerp Province,BE-VAN,VAN,Antwerp,1,EBAW,ANR,,http://www.antwerp-airport.be/,https://en.wikipedia.org/wiki/Antwerp_International_Airport,,750,2020-11-27T11:11:38+00:00,安特卫普机场
2415,EGFF,medium_airport,Cardiff International Airport,51.396702,-3.34333,220,EU,United Kingdom,GB,Wales,GB-WLS,WLS,Cardiff,1,EGFF,CWL,,http://www.cwlfly.com/,https://en.wikipedia.org/wiki/Cardiff_International_Airport,Rhoose,750,2021-11-20T15:44:13+00:00,加的夫机场
2210,EDDC,medium_airport,Dresden Airport,51.134123,13.767831,755,EU,Germany,DE,Saxony,DE-SN,SN,Dresden,1,EDDC,DRS,,http://www.dresden-airport.de/en/index.html,https://en.wikipedia.org/wiki/Dresden_Airport,,750,2022-01-05T12:03:27+00:00,德累斯顿机场
2481,EGTE,medium_airport,Exeter International Airport,50.734402,-3.41389,102,EU,United Kingdom,GB,England,GB-ENG,ENG,Exeter,1,EGTE,EXT,,http://www.exeter-airport.co.uk/,https://en.wikipedia.org/wiki/Exeter_International_Airport,,750,2021-11-20T15:44:58+00:00,埃克塞特
3543,KFSM,medium_airport,Fort Smith Regional Airport,35.336601,-94.367401,469,NA,United States,US,Arkansas,US-AR,AR,Fort Smith,1,KFSM,FSM,FSM,,https://en.wikipedia.org/wiki/Fort_Smith_Regional_Airport,,750,2021-11-21T15:15:25+00:00,
3600,KHYA,medium_airport,Barnstable Municipal Boardman Polando Field,41.66930008,-70.28040314,54,NA,United States,US,Massachusetts,US-MA,MA,Hyannis,1,KHYA,HYA,HYA,,https://en.wikipedia.org/wiki/Barnstable_Municipal_Airport,,750,2010-01-23T11:27:52+00:00,
3606,KIDA,medium_airport,Idaho Falls Regional Airport,43.514599,-112.070999,4744,NA,United States,US,Idaho,US-ID,ID,Idaho Falls,1,KIDA,IDA,IDA,,https://en.wikipedia.org/wiki/Idaho_Falls_Regional_Airport,Fanning Field,750,2017-08-04T10:23:34+00:00,
5379,PAJN,medium_airport,Juneau International Airport,58.35499954223633,-134.5760040283203,21,NA,United States,US,Alaska,US-AK,AK,Juneau,1,PAJN,JNU,JNU,,https://en.wikipedia.org/wiki/Juneau_International_Airport,,750,2008-06-13T14:30:04+00:00,朱诺
3701,KMOD,medium_airport,Modesto City Co-Harry Sham Field,37.625801,-120.954002,97,NA,United States,US,California,US-CA,CA,Modesto,0,KMOD,MOD,MOD,,https://en.wikipedia.org/wiki/Modesto_City-County_Airport,,750,2021-06-02T13:11:52+00:00,
2132,DTMB,medium_airport,Monastir Habib Bourguiba International Airport,35.75809860229492,10.75469970703125,9,AF,Tunisia,TN,Monastir Governorate,TN-52,52,Monastir,1,DTMB,MIR,,,https://en.wikipedia.org/wiki/Habib_Bourguiba_International_Airport,,750,2009-06-25T16:23:45+00:00,莫纳斯提尔机场
1972,CYYB,medium_airport,North Bay Jack Garland Airport,46.363602,-79.422798,1215,NA,Canada,CA,Ontario,CA-ON,ON,North Bay,1,CYYB,YYB,,https://yyb.ca/,https://en.wikipedia.org/wiki/North_Bay/Jack_Garland_Airport,"Jack Garland Airport, CFB North Bay",750,2022-03-16T15:36:58+00:00,
4333,LIEO,medium_airport,Olbia Costa Smeralda Airport,40.898701,9.51763,37,EU,Italy,IT,Sardinia,IT-88,88,Olbia (SS),1,LIEO,OLB,SS03,,https://en.wikipedia.org/wiki/Olbia_Costa_Smeralda_Airport,,750,2016-08-12T11:11:59+00:00,
3603,KIAG,medium_airport,Niagara Falls International Airport,43.1073,-78.946198,589,NA,United States,US,New York,US-NY,NY,Niagara Falls,1,KIAG,IAG,IAG,,https://en.wikipedia.org/wiki/Niagara_Falls_International_Airport,,500,2021-05-29T06:35:00+00:00,
20160,KIFP,medium_airport,Laughlin Bullhead International Airport,35.157398,-114.559998,701,NA,United States,US,Arizona,US-AZ,AZ,Bullhead City,0,KIFP,IFP,IFP,,https://en.wikipedia.org/wiki/Laughlin/Bullhead_International_Airport,,450,2021-11-20T15:41:45+00:00,
1686,CYCC,medium_airport,Cornwall Regional Airport,45.092637,-74.567724,175,NA,Canada,CA,Ontario,CA-ON,ON,Cornwall,0,CYCC,YCC,,,https://en.wikipedia.org/wiki/Cornwall_Regional_Airport,,250,2022-02-19T13:21:02+00:00,
21204,KTMB,medium_airport,Miami Executive Airport,25.6479,-80.4328,8,NA,United States,US,Florida,US-FL,FL,Miami,0,KTMB,TMB,TMB,http://www.miami-airport.com/kendall_tamiami.asp,https://en.wikipedia.org/wiki/Miami_Executive_Airport,Kendall-Tamiami Executive Airport,250,2019-12-30T17:41:41+00:00,
3902,KSSI,medium_airport,St Simons Island Airport,31.1518,-81.391296,19,NA,United States,US,Georgia,US-GA,GA,St Simons Island,0,KSSI,SSI,SSI,http://www.goldenisles.com/listing/mckinnon-st-simons-island-airport,https://en.wikipedia.org/wiki/Malcolm_McKinnon_Airport,"Malcolm McKinnon, NAS St. Simons Island, Brunswick",250,2019-08-02T12:24:39+00:00,
1943,CYVV,medium_airport,Wiarton Airport,44.7458,-81.107201,729,NA,Canada,CA,Ontario,CA-ON,ON,Wiarton,0,CYVV,YVV,,http://wiartonairport.ca/,https://en.wikipedia.org/wiki/Wiarton_Airport,,250,2016-02-21T21:56:30+00:00,
3442,KCDC,medium_airport,Cedar City Regional Airport,37.70100021362305,-113.0989990234375,5622,NA,United States,US,Utah,US-UT,UT,Cedar City,1,KCDC,CDC,CDC,,https://en.wikipedia.org/wiki/Cedar_City_Regional_Airport,,750,2008-06-13T14:30:04+00:00,锡达城机场
2247,EDLW,medium_airport,Dortmund Airport,51.518299,7.61224,425,EU,Germany,DE,North Rhine-Westphalia,DE-NW,NW,Dortmund,1,EDLW,DTM,,,https://en.wikipedia.org/wiki/Dortmund_Airport,,750,2021-11-20T15:45:21+00:00,多特蒙德
3525,KFAY,medium_airport,Fayetteville Regional Airport - Grannis Field,34.991199,-78.880302,189,NA,United States,US,North Carolina,US-NC,NC,Fayetteville,1,KFAY,FAY,FAY,,https://en.wikipedia.org/wiki/Fayetteville_Regional_Airport,,750,2021-02-26T17:02:58+00:00,
3648,KLNS,medium_airport,Lancaster Airport,40.121700286865234,-76.29609680175781,403,NA,United States,US,Pennsylvania,US-PA,PA,Lancaster,1,KLNS,LNS,LNS,,https://en.wikipedia.org/wiki/Lancaster_Airport_(Pennsylvania),,750,2008-06-13T14:30:04+00:00,
3987,LDPL,medium_airport,Pula Airport,44.89350128173828,13.922200202941895,274,EU,Croatia,HR,Istria County,HR-18,18,Pula,1,LDPL,PUY,,,https://en.wikipedia.org/wiki/Pula_Airport,,750,2008-12-19T20:08:47+00:00,
3994,LDZD,medium_airport,Zadar Airport,44.108299,15.3467,289,EU,Croatia,HR,Zadar County,HR-13,13,Zemunik (Zadar),1,LDZD,ZAD,,https://www.zadar-airport.hr/en,https://en.wikipedia.org/wiki/Zadar_Airport,,750,2019-12-02T08:09:07+00:00,扎达尔
20822,KPGD,medium_airport,Charlotte County Airport,26.9202,-81.990501,26,NA,United States,US,Florida,US-FL,FL,Punta Gorda,1,KPGD,PGD,PGD,http://www.flypgd.com/,https://en.wikipedia.org/wiki/Punta_Gorda_Airport_(Florida),Punta Gorda AAF,500,2021-11-20T15:45:40+00:00,
3786,KPOU,medium_airport,Dutchess County Airport,41.6265983581543,-73.88420104980469,165,NA,United States,US,New York,US-NY,NY,Poughkeepsie,0,KPOU,POU,POU,,https://en.wikipedia.org/wiki/Dutchess_County_Airport,,475,2008-06-13T14:30:04+00:00,
3546,KFTY,medium_airport,Fulton County Airport Brown Field,33.7790985107,-84.5214004517,841,NA,United States,US,Georgia,US-GA,GA,Atlanta,0,KFTY,FTY,FTY,http://www.fultoncountyga.gov/component/content/article/223-general-services/2098-fulton-county-airport-brown-field,https://en.wikipedia.org/wiki/Fulton_County_Airport_(Georgia),,400,2014-09-26T22:20:13+00:00,
3758,KOSU,medium_airport,The Ohio State University Airport - Don Scott Field,40.0798,-83.072998,905,NA,United States,US,Ohio,US-OH,OH,Columbus,0,KOSU,OSU,OSU,https://osuairport.org/,https://en.wikipedia.org/wiki/Ohio_State_University_Airport,,300,2018-04-19T16:23:50+00:00,
3874,KSDM,medium_airport,Brown Field Municipal Airport,32.572299957275,-116.98000335693,526,NA,United States,US,California,US-CA,CA,San Diego,0,KSDM,SDM,SDM,http://www.sandiego.gov/airports/brown/,https://en.wikipedia.org/wiki/Brown_Field_Municipal_Airport,,250,2015-05-22T11:57:53+00:00,
3369,KAHN,medium_airport,Athens Ben Epps Airport,33.94860076904297,-83.32630157470703,808,NA,United States,US,Georgia,US-GA,GA,Athens,1,KAHN,AHN,AHN,,https://en.wikipedia.org/wiki/Athens-Ben_Epps_Airport,,750,2008-06-13T14:30:04+00:00,
3426,KBRO,medium_airport,Brownsville South Padre Island International Airport,25.90679931640625,-97.4259033203125,22,NA,United States,US,Texas,US-TX,TX,Brownsville,1,KBRO,BRO,BRO,,https://en.wikipedia.org/wiki/Brownsville/South_Padre_Island_International_Airport,,750,2008-06-13T14:30:04+00:00,布朗斯维尔南帕德雷岛机场
3845,KRFD,medium_airport,Chicago Rockford International Airport,42.1954,-89.097198,742,NA,United States,US,Illinois,US-IL,IL,Chicago/Rockford,1,KRFD,RFD,RFD,,https://en.wikipedia.org/wiki/Chicago/Rockford_International_Airport,,750,2021-11-20T15:46:22+00:00,
4344,LIMJ,medium_airport,Genoa Cristoforo Colombo Airport,44.4133,8.8375,13,EU,Italy,IT,Liguria,IT-42,42,Genova,1,LIMJ,GOA,GE01,http://www.aeroportodigenova.com/en/home/index.php,https://en.wikipedia.org/wiki/Genoa_Cristoforo_Colombo_Airport,"Genova Sestri, Sestri Cristoforo Colombo Airport, Cristoforo Colombo Airport",750,2021-11-20T15:46:50+00:00,热那亚—西塞斯特里克里斯托弗·哥伦布机场
3654,KLSE,medium_airport,La Crosse Regional Airport,43.879002,-91.256699,655,NA,United States,US,Wisconsin,US-WI,WI,La Crosse,1,KLSE,LSE,LSE,http://www.lseairport.com/,https://en.wikipedia.org/wiki/La_Crosse_Municipal_Airport,"airport, regional",750,2022-02-11T17:33:48+00:00,
3191,HELX,medium_airport,Luxor International Airport,25.674629,32.700012,276,AF,Egypt,EG,Qena Governorate,EG-KN,KN,Luxor,1,HELX,LXR,,,https://en.wikipedia.org/wiki/Luxor_International_Airport,,750,2021-03-22T09:16:10+00:00,卢克索机场
4238,LFST,medium_airport,Strasbourg Airport,48.538299560546875,7.628230094909668,505,EU,France,FR,Grand Est,FR-GES,GES,Strasbourg,1,LFST,SXB,,http://www.strasbourg.aeroport.fr/E/index.php,https://en.wikipedia.org/wiki/Strasbourg_Airport,BA 124,750,2008-06-13T14:30:04+00:00,斯特拉斯堡机场
26900,YBAS,medium_airport,Alice Springs Airport,-23.806699752807617,133.90199279785156,1789,OC,Australia,AU,Northern Territory,AU-NT,NT,Alice Springs,1,YBAS,ASP,,http://www.alicespringsairport.com.au/,https://en.wikipedia.org/wiki/Alice_Springs_Airport,,750,2008-08-01T10:52:25+00:00,
1985,CYYR,medium_airport,Goose Bay Airport,53.3191986084,-60.4258003235,160,NA,Canada,CA,Newfoundland and Labrador,CA-NL,NL,Goose Bay,1,CYYR,YYR,,,https://en.wikipedia.org/wiki/CFB_Goose_Bay,CFB Goose Bay,750,2014-03-20T00:20:41+00:00,古斯贝机场
3591,KHRL,medium_airport,Valley International Airport,26.228500366210938,-97.65440368652344,36,NA,United States,US,Texas,US-TX,TX,Harlingen,1,KHRL,HRL,HRL,,https://en.wikipedia.org/wiki/Valley_International_Airport,,750,2008-06-13T14:30:04+00:00,
4774,MNMG,medium_airport,Augusto C. Sandino (Managua) International Airport,12.141500473022461,-86.16819763183594,194,NA,Nicaragua,NI,Managua,NI-MN,MN,Managua,1,MNMG,MGA,,,https://en.wikipedia.org/wiki/Augusto_C._Sandino_International_Airport,,750,2008-09-27T10:45:45+00:00,马那瓜
4726,MMMD,medium_airport,Licenciado Manuel Crescencio Rejon Int Airport,20.937000274699997,-89.657699585,38,NA,Mexico,MX,Yucatán,MX-YUC,YUC,Mérida,1,MMMD,MID,,,https://en.wikipedia.org/wiki/Manuel_Crescencio_Rej%C3%B3n_International_Airport,,750,2010-08-31T22:53:35+00:00,梅里达
20870,KPSC,medium_airport,Tri Cities Airport,46.26470184326172,-119.11900329589844,410,NA,United States,US,Washington,US-WA,WA,Pasco,1,KPSC,PSC,PSC,,,,750,2008-06-13T14:30:04+00:00,帕斯科
4361,LIPQ,medium_airport,Trieste–Friuli Venezia Giulia Airport,45.827499,13.4722,39,EU,Italy,IT,Friuli-Venezia Giulia,IT-36,36,Trieste,1,LIPQ,TRS,GO02,http://www.aeroporto.fvg.it/,https://en.wikipedia.org/wiki/Trieste_%E2%80%93_Friuli_Venezia_Giulia_Airport,"Ronchi Dei Legionari Airport, Trieste-Ronchi dei Legionari Airport",750,2016-09-02T03:06:03+00:00,的里雅斯特
3756,KORH,medium_airport,Worcester Regional Airport,42.2673,-71.875702,1009,NA,United States,US,Massachusetts,US-MA,MA,Worcester,1,KORH,ORH,ORH,,https://en.wikipedia.org/wiki/Worcester-Metrowest-Boston_Airport,,750,2021-10-06T17:46:21+00:00,
3487,KDET,medium_airport,Coleman A. Young Municipal Airport,42.40919876,-83.00990295,626,NA,United States,US,Michigan,US-MI,MI,Detroit,0,KDET,DET,DET,,https://en.wikipedia.org/wiki/Coleman_A._Young_International_Airport,,599,2010-01-23T11:27:50+00:00,
3357,KABI,medium_airport,Abilene Regional Airport,32.4113006592,-99.68190002440001,1791,NA,United States,US,Texas,US-TX,TX,Abilene,1,KABI,ABI,ABI,,https://en.wikipedia.org/wiki/Abilene_Regional_Airport,,500,2011-09-03T02:33:57+00:00,阿比林机场
2163,EBOS,medium_airport,Ostend-Bruges International Airport,51.1998,2.874673,13,EU,Belgium,BE,West Flanders Province,BE-VWV,VWV,Ostend,1,EBOS,OST,,http://www.ost.aero/,https://en.wikipedia.org/wiki/Ostend-Bruges_International_Airport,,500,2022-03-02T21:00:45+00:00,奥斯坦德机场
20506,KMHR,medium_airport,Sacramento Mather Airport,38.553902,-121.297997,98,NA,United States,US,California,US-CA,CA,Sacramento,1,KMHR,MHR,MHR,http://www.sacramento.aero/mhr/,https://en.wikipedia.org/wiki/Sacramento_Mather_Airport,,500,2021-05-29T07:09:27+00:00,
3872,KSCK,medium_airport,Stockton Metropolitan Airport,37.894199371338,-121.2379989624,33,NA,United States,US,California,US-CA,CA,Stockton,0,KSCK,SCK,SCK,http://www.sjgov.org/airport/,https://en.wikipedia.org/wiki/Stockton_Metropolitan_Airport,,400,2015-05-17T14:22:59+00:00,斯托克顿
3923,KTIX,medium_airport,Space Coast Regional Airport,28.514799118042,-80.799201965332,34,NA,United States,US,Florida,US-FL,FL,Titusville,0,KTIX,TIX,TIX,,https://en.wikipedia.org/wiki/Space_Coast_Regional_Airport,,300,2015-11-22T14:19:50+00:00,
3504,KEEN,medium_airport,Dillant Hopkins Airport,42.898399,-72.270798,488,NA,United States,US,New Hampshire,US-NH,NH,Keene,0,KEEN,EEN,EEN,https://ci.keene.nh.us/keene-dillant-hopkins-airport,https://en.wikipedia.org/wiki/Dillant-Hopkins_Airport,,250,2021-01-07T19:41:58+00:00,
3553,KGFK,medium_airport,Grand Forks International Airport,47.949299,-97.176102,845,NA,United States,US,North Dakota,US-ND,ND,Grand Forks,1,KGFK,GFK,GFK,http://www.gfkairport.com/,https://en.wikipedia.org/wiki/Grand_Forks_International_Airport,,750,2016-12-13T09:15:59+00:00,
27058,YMHB,medium_airport,Hobart International Airport,-42.836101532,147.509994507,13,OC,Australia,AU,Tasmania,AU-TAS,TAS,Hobart,1,YMHB,HBA,,,https://en.wikipedia.org/wiki/Hobart_International_Airport,,750,2010-08-29T23:16:15+00:00,霍巴特机场
4432,LOWL,medium_airport,Linz-Hörsching Airport / Vogler Air Base,48.2332,14.1875,980,EU,Austria,AT,Upper Austria,AT-4,4,Linz,1,LOWL,LNZ,,http://www.flughafen-linz.at/,https://en.wikipedia.org/wiki/Linz_Airport,"Blue Danube Airport, Vogler Air Base, Fliegerhorst Vogler",750,2021-02-22T15:35:37+00:00,林茨
1976,CYYF,medium_airport,Penticton Airport,49.46310043334961,-119.60199737548828,1129,NA,Canada,CA,British Columbia,CA-BC,BC,Penticton,1,CYYF,YYF,,,https://en.wikipedia.org/wiki/Penticton_Regional_Airport,,750,2008-06-13T14:30:04+00:00,彭蒂科顿机场
3891,KSLN,medium_airport,Salina Municipal Airport,38.79100036621094,-97.6521987915039,1288,NA,United States,US,Kansas,US-KS,KS,Salina,1,KSLN,SLN,SLN,,https://en.wikipedia.org/wiki/Salina_Municipal_Airport,,750,2008-06-13T14:30:04+00:00,
3907,KSUS,medium_airport,Spirit of St Louis Airport,38.662102,-90.652,463,NA,United States,US,Missouri,US-MO,MO,St Louis,0,KSUS,SUS,SUS,http://spiritairport.com/spiritairport/index.jsp,https://en.wikipedia.org/wiki/Spirit_of_St._Louis_Airport,,750,2021-11-21T15:17:09+00:00,
3937,KTYR,medium_airport,Tyler Pounds Regional Airport,32.35409927368164,-95.40239715576172,544,NA,United States,US,Texas,US-TX,TX,Tyler,1,KTYR,TYR,TYR,,https://en.wikipedia.org/wiki/Tyler_Pounds_Regional_Airport,,750,2008-06-13T14:30:04+00:00,
1993,CYZF,medium_airport,Yellowknife International Airport,62.462799,-114.440002,675,NA,Canada,CA,Northwest Territories,CA-NT,NT,Yellowknife,1,CYZF,YZF,,,https://en.wikipedia.org/wiki/Yellowknife_Airport,,750,2021-11-20T15:48:22+00:00,耶洛奈夫机场
20981,KRYY,medium_airport,Cobb County International Airport-McCollum Field,34.01316,-84.59721,1040,NA,United States,US,Georgia,US-GA,GA,Atlanta,0,KRYY,,RYY,,https://en.wikipedia.org/wiki/Cobb_County_Airport,,250,2021-12-02T04:38:46+00:00,
19882,KFMY,medium_airport,Page Field,26.58659935,-81.86329650879999,17,NA,United States,US,Florida,US-FL,FL,Fort Myers,0,KFMY,FMY,FMY,http://www.flylcpa.com/aboutfmy,https://en.wikipedia.org/wiki/Page_Field,,250,2014-05-09T23:41:06+00:00,
21222,KTRM,medium_airport,Jacqueline Cochran Regional Airport,33.62670135498,-116.16000366211,-115,NA,United States,US,California,US-CA,CA,Palm Springs,0,KTRM,TRM,TRM,http://www.rcjcra.com/,https://en.wikipedia.org/wiki/Jacqueline_Cochran_Regional_Airport,"Thermal Airport, Desert Resorts Regional Airport, Thermal AAF",250,2015-06-07T12:58:29+00:00,
1729,CYFB,medium_airport,Iqaluit Airport,63.756402,-68.555801,110,NA,Canada,CA,Nunavut,CA-NU,NU,Iqaluit,1,CYFB,YFB,,,https://en.wikipedia.org/wiki/Iqaluit_Airport,Frobisher Bay Air Base,750,2017-03-31T23:10:58+00:00,
2613,EPKT,medium_airport,Katowice International Airport,50.4743,19.08,995,EU,Poland,PL,Silesia,PL-SL,SL,Katowice,1,EPKT,KTW,,http://katowice.airport.com,https://en.wikipedia.org/wiki/Katowice_International_Airport,"Pyrzowice, Dąbrowa Górnicza, Katowice, Silesia, GOP, Silesia Metropolis, Gliwice, Piekary Śląskie, Bytom, Zabrze, Sosnowiec",750,2021-11-21T15:18:46+00:00,卡托维兹
3599,KHVN,medium_airport,Tweed New Haven Airport,41.26369858,-72.88680267,12,NA,United States,US,Connecticut,US-CT,CT,New Haven,1,KHVN,HVN,HVN,,https://en.wikipedia.org/wiki/Tweed_New_Haven_Regional_Airport,,750,2010-01-23T11:27:52+00:00,纽黑文
3981,LCPH,medium_airport,Paphos International Airport,34.717999,32.485699,41,AS,Cyprus,CY,Paphos District,CY-06,06,Paphos,1,LCPH,PFO,,http://paphosinternationalairport.com/index_papxmas.html,https://en.wikipedia.org/wiki/Paphos_International_Airport,"Pafos, Mandria, Kouklia, Διεθνής Αερολιμένας Πάφου",750,2021-10-16T05:10:08+00:00,
5951,SBPA,medium_airport,Salgado Filho International Airport,-29.994712,-51.166592,11,SA,Brazil,BR,Rio Grande do Sul,BR-RS,RS,Porto Alegre,1,SBPA,POA,RS0001,,https://en.wikipedia.org/wiki/Salgado_Filho_International_Airport,,750,2021-08-18T21:06:21+00:00,普图阿里格里
4637,MDPP,medium_airport,Gregorio Luperon International Airport,19.75790023803711,-70.56999969482422,15,NA,Dominican Republic,DO,Puerto Plata Province,DO-18,18,Puerto Plata,1,MDPP,POP,,,https://en.wikipedia.org/wiki/Gregorio_Luper%C3%B3n_International_Airport,La Union,750,2008-10-17T20:07:00+00:00,Puerto PLata Gregorio Luperon机场
2425,EGJB,medium_airport,Guernsey Airport,49.435001,-2.60197,336,EU,Guernsey,GG,(unassigned),GG-U-A,U-A,Saint Peter Port,1,EGJB,GCI,,,https://en.wikipedia.org/wiki/Guernsey_Airport,Channel Islands,750,2021-11-17T17:32:21+00:00,
6359,TAPA,medium_airport,V.C. Bird International Airport,17.1367,-61.792702,62,NA,Antigua and Barbuda,AG,Saint George Parish,AG-03,03,St. John's,1,TAPA,ANU,,,https://en.wikipedia.org/wiki/VC_Bird_International_Airport,,750,2018-08-27T04:40:10+00:00,
1882,CYQY,medium_airport,Sydney / J.A. Douglas McCurdy Airport,46.1614,-60.047798,203,NA,Canada,CA,Nova Scotia,CA-NS,NS,Sydney,1,CYQY,YQY,,http://www.sydneyairport.ca/,https://en.wikipedia.org/wiki/Sydney/J.A._Douglas_McCurdy_Airport,,750,2018-09-16T02:31:25+00:00,悉尼
3614,KIPT,medium_airport,Williamsport Regional Airport,41.241798400878906,-76.92109680175781,529,NA,United States,US,Pennsylvania,US-PA,PA,Williamsport,1,KIPT,IPT,IPT,,https://en.wikipedia.org/wiki/Williamsport_Regional_Airport,,750,2008-06-13T14:30:04+00:00,
3957,KYIP,medium_airport,Willow Run Airport,42.23789978,-83.53040314,716,NA,United States,US,Michigan,US-MI,MI,Detroit,0,KYIP,YIP,YIP,,https://en.wikipedia.org/wiki/Willow_Run_Airport,DTT,575,2010-01-23T11:28:08+00:00,
21300,KUNV,medium_airport,University Park Airport,40.849374,-77.84852,1239,NA,United States,US,Pennsylvania,US-PA,PA,State College,1,KUNV,SCE,UNV,http://universityparkairport.com/,https://en.wikipedia.org/wiki/University_Park_Airport,,500,2022-02-11T15:18:00+00:00,
20161,KIGM,medium_airport,Kingman Airport,35.259499,-113.938004,3449,NA,United States,US,Arizona,US-AZ,AZ,Kingman,0,KIGM,IGM,IGM,,https://en.wikipedia.org/wiki/Kingman_Airport_(Arizona),,450,2021-11-20T15:47:40+00:00,
3554,KGFL,medium_airport,Floyd Bennett Memorial Airport,43.3412017822,-73.6102981567,328,NA,United States,US,New York,US-NY,NY,Glens Falls,0,KGFL,GFL,GFL,http://www.warrencountydpw.com/airport_07/,https://en.wikipedia.org/wiki/Floyd_Bennett_Memorial_Airport,,400,2013-07-20T13:51:17+00:00,
3895,KSNS,medium_airport,Salinas Municipal Airport,36.662799835205,-121.60600280762,85,NA,United States,US,California,US-CA,CA,Salinas,0,KSNS,SNS,SNS,http://www.ci.salinas.ca.us/services/airport/airport.cfm,https://en.wikipedia.org/wiki/Salinas_Municipal_Airport,,400,2015-05-27T02:03:54+00:00,
3698,KMMU,medium_airport,Morristown Municipal Airport,40.799400329589844,-74.41490173339844,187,NA,United States,US,New Jersey,US-NJ,NJ,Morristown,0,KMMU,MMU,MMU,,https://en.wikipedia.org/wiki/Morristown_Municipal_Airport,"Manhattan, New York City, NYC",375,2008-06-13T14:30:04+00:00,
3837,KRAL,medium_airport,Riverside Municipal Airport,33.9519,-117.445,819,NA,United States,US,California,US-CA,CA,Riverside,0,KRAL,RAL,RAL,http://www.riversideca.gov/airport/,https://en.wikipedia.org/wiki/Riverside_Municipal_Airport,Riverside Arlington,300,2021-04-09T16:55:12+00:00,里弗赛德
19388,KBLH,medium_airport,Blythe Airport,33.6192016602,-114.717002869,399,NA,United States,US,California,US-CA,CA,Blythe,0,KBLH,BLH,BLH,,https://en.wikipedia.org/wiki/Blythe_Airport,,250,2012-07-15T03:38:08+00:00,加利福尼亚布莱斯机场
21375,KWJF,medium_airport,General WM J Fox Airfield,34.74110031,-118.2190018,2351,NA,United States,US,California,US-CA,CA,Lancaster,0,KWJF,WJF,WJF,,https://en.wikipedia.org/wiki/General_William_J._Fox_Airfield,,250,2013-07-02T23:58:15+00:00,
3839,KRBL,medium_airport,Red Bluff Municipal Airport,40.1506996155,-122.251998901,352,NA,United States,US,California,US-CA,CA,Red Bluff,0,KRBL,RBL,RBL,,https://en.wikipedia.org/wiki/Red_Bluff_Municipal_Airport,,250,2015-12-04T11:00:28+00:00,
